"lead_ppb","StreetAddress","City","State","ZIP","Latitude","Longitude","CensusYear","CensusPlaceFips","CensusMsaFips","CensusMetDivFips","CensusMcdFips","CensusCbsaMicro","CensusCbsaFips","CensusBlock","CensusBlockGroup","CensusTract","CensusCountyFips","CensusStateFips"
0,"1400 SUNCREST DR APT 2","FLINT","MI",48504,43.0290743278957,-83.7437276436679,"TwoThousandTen",NA,870,NA,29020,0,22420,2025,2,108.12,49,26
0,"114 W RUTH AVE","FLINT","MI",48505,43.0702572851004,-83.7063849488146,"TwoThousandTen",29000,2162,NA,29000,0,22420,3005,3,2,49,26
0,"1517 HUGHES AVE","FLINT","MI",48503,42.9990879546233,-83.7269092143835,"TwoThousandTen",29000,2162,NA,29000,0,22420,4011,4,36,49,26
0,"2608 WALTER ST","FLINT","MI",48504,43.0397256264667,-83.7263484175147,"TwoThousandTen",29000,2162,NA,29000,0,22420,2014,2,9,49,26
0,"2801 CIRCLE DR","FLINT","MI",48507,42.9976234345229,-83.6646824742086,"TwoThousandTen",29000,2162,NA,29000,0,22420,1014,1,33,49,26
0,"633 W HOME AVE","FLINT","MI",48505,43.0670199262335,-83.7132512705596,"TwoThousandTen",29000,2162,NA,29000,0,22420,1002,1,4,49,26
0,"3202 BEECHWOOD AVE","FLINT","MI",48506,43.0388692351251,-83.6477115585431,"TwoThousandTen",29000,2162,NA,29000,0,22420,1017,1,27,49,26
0,"1820 HOSLER ST","FLINT","MI",48503,43.0093621653834,-83.645466475144,"TwoThousandTen",29000,2162,NA,29000,0,22420,2044,2,31,49,26
0,"1122 BARRINGTON DR","FLINT","MI",48503,43.0149855928797,-83.6400133045092,"TwoThousandTen",29000,2162,NA,29000,0,22420,2031,2,31,49,26
0,"2005 TUSCOLA ST","FLINT","MI",48503,43.0248558286121,-83.6641646011604,"TwoThousandTen",29000,2162,NA,29000,0,22420,1001,1,30,49,26
0,"3725 KENT ST","FLINT","MI",48503,43.0078637457522,-83.6385192766721,"TwoThousandTen",29000,2162,NA,29000,0,22420,1003,1,31,49,26
0,"3202 DEARBORN AVE","FLINT","MI",48507,42.9937162714143,-83.6602282871871,"TwoThousandTen",29000,2162,NA,29000,0,22420,1020,1,33,49,26
0,"3428 RANGELEY ST","FLINT","MI",48503,43.0179548838865,-83.6407151191642,"TwoThousandTen",29000,2162,NA,29000,0,22420,2019,2,31,49,26
0,"702 VERMILYA AVE","FLINT","MI",48507,42.9917562051852,-83.6859141944975,"TwoThousandTen",29000,2162,NA,29000,0,22420,2012,2,40,49,26
0,"3632 GLOUCESTER ST","FLINT","MI",48503,43.0068202295937,-83.6406554016313,"TwoThousandTen",29000,2162,NA,29000,0,22420,1011,1,31,49,26
0,"2610 M L KING AVE","FLINT","MI",48505,43.062702,-83.692479,"TwoThousandTen",29000,2162,NA,29000,0,22420,2030,2,17,49,26
0,"615 STONE ST","FLINT","MI",48503,43.0186571809269,-83.7008920653967,"TwoThousandTen",29000,2162,NA,29000,0,22420,2018,2,15,49,26
0,"607 E 2ND AVE APT 514","FLINT","MI",48502,43.0202193350253,-83.694239166977,"TwoThousandTen",29000,2162,NA,29000,0,22420,2015,2,28,49,26
0,"2406 PIERCE ST","FLINT","MI",48503,43.0175790905997,-83.6588821658767,"TwoThousandTen",29000,2162,NA,29000,0,22420,3012,3,30,49,26
0,"607 E 2ND AVE APT 514","FLINT","MI",48502,43.0202193350253,-83.694239166977,"TwoThousandTen",29000,2162,NA,29000,0,22420,2015,2,28,49,26
0,"2528 WINONA ST","FLINT","MI",48504,43.0388045251316,-83.7283521752363,"TwoThousandTen",29000,2162,NA,29000,0,22420,1013,1,9,49,26
0,"4418 BILLINGS ST","FLINT","MI",48505,43.0554080976483,-83.6926158757013,"TwoThousandTen",29000,2162,NA,29000,0,22420,1040,1,20,49,26
0,"4408 CUTHBERTSON ST","FLINT","MI",48507,42.9840767161504,-83.6805110889928,"TwoThousandTen",29000,2162,NA,29000,0,22420,1024,1,35,49,26
0,"2528 WINONA ST","FLINT","MI",48504,43.0388045251316,-83.7283521752363,"TwoThousandTen",29000,2162,NA,29000,0,22420,1013,1,9,49,26
0,"5306 GRANVILLE AVE","FLINT","MI",48505,43.0619082359112,-83.7123300562217,"TwoThousandTen",29000,2162,NA,29000,0,22420,1004,1,4,49,26
0,"4618 EDWARDS AVE","FLINT","MI",48505,43.0566598490651,-83.7145685128557,"TwoThousandTen",29000,2162,NA,29000,0,22420,3006,3,5,49,26
0,"801 ADDISON ST # A","FLINT","MI",48505,43.0492620481619,-83.690474424796,"TwoThousandTen",29000,2162,NA,29000,0,22420,2009,2,20,49,26
0,"5031 BRANCH RD","FLINT","MI",48506,43.0605974453239,-83.6509017057636,"TwoThousandTen",29000,2162,NA,29000,0,22420,3022,3,19,49,26
0,"3018 CHEROKEE AVE","FLINT","MI",48507,42.9948247345195,-83.658205198536,"TwoThousandTen",29000,2162,NA,29000,0,22420,1018,1,33,49,26
0,"4805 FENTON RD","FLINT","MI",48507,42.970942,-83.703232,"TwoThousandTen",NA,870,NA,29020,0,22420,4001,4,110.1,49,26
0,"3741 NORWOOD DR","FLINT","MI",48503,43.0121087571729,-83.7317167464231,"TwoThousandTen",29000,2162,NA,29000,0,22420,4008,4,16,49,26
0,"2211 WINDEMERE AVE","FLINT","MI",48503,43.0199071186869,-83.6609962594814,"TwoThousandTen",29000,2162,NA,29000,0,22420,2021,2,30,49,26
0,"2002 HILLS ST","FLINT","MI",48503,43.0167917758693,-83.6638767165583,"TwoThousandTen",29000,2162,NA,29000,0,22420,3004,3,30,49,26
0,"3805 E COURT ST","FLINT","MI",48506,43.0187865605915,-83.6363568317145,"TwoThousandTen",29000,2162,NA,29000,0,22420,2016,2,31,49,26
0,"3115 LAWNDALE AVE","FLINT","MI",48504,43.0438869136062,-83.7194825021502,"TwoThousandTen",29000,2162,NA,29000,0,22420,3004,3,9,49,26
0,"1515 TULANE CIR","FLINT","MI",48503,43.0298732140128,-83.6882654668439,"TwoThousandTen",29000,2162,NA,29000,0,22420,1023,1,136,49,26
0,"1714 BARBARA DR","FLINT","MI",48504,43.0684825795723,-83.7258691813643,"TwoThousandTen",29000,2162,NA,29000,0,22420,1012,1,1,49,26
0,"1401 S DORT HWY","FLINT","MI",48503,43.0134678306108,-83.6542500580599,"TwoThousandTen",29000,2162,NA,29000,0,22420,2026,2,31,49,26
0,"1826 BARKS ST","FLINT","MI",48503,43.0089241397615,-83.6608949915316,"TwoThousandTen",29000,2162,NA,29000,0,22420,3011,3,32,49,26
0,"3418 SANTA CLARA CT","FLINT","MI",48504,43.0283383865257,-83.7402238082102,"TwoThousandTen",29000,2162,NA,29000,0,22420,1009,1,13,49,26
0,"2617 PINETREE DR","FLINT","MI",48507,42.9988246412837,-83.660633239487,"TwoThousandTen",29000,2162,NA,29000,0,22420,1004,1,33,49,26
0,"1301 KIRK AVE","FLINT","MI",48503,43.0253851471628,-83.7115213542574,"TwoThousandTen",29000,2162,NA,29000,0,22420,1005,1,15,49,26
0,"3514 NORWOOD DR","FLINT","MI",48503,43.0105533100851,-83.7294388615446,"TwoThousandTen",29000,2162,NA,29000,0,22420,5008,5,16,49,26
0,"2501 BAGLEY ST","FLINT","MI",48504,43.0208829511523,-83.7229718920548,"TwoThousandTen",29000,2162,NA,29000,0,22420,1006,1,16,49,26
0,"3022 MONTANA AVE","FLINT","MI",48506,43.0441199051277,-83.6518722559958,"TwoThousandTen",29000,2162,NA,29000,0,22420,1018,1,24,49,26
0,"1401 S DORT HWY","FLINT","MI",48503,43.0134678306108,-83.6542500580599,"TwoThousandTen",29000,2162,NA,29000,0,22420,2026,2,31,49,26
0,"3810 CLAIRMONT ST","FLINT","MI",48532,42.9974536192078,-83.7355332997937,"TwoThousandTen",29000,2162,NA,29000,0,22420,3015,3,36,49,26
0,"4217 CUTHBERTSON ST","FLINT","MI",48507,42.9853363684211,-83.6803639845173,"TwoThousandTen",29000,2162,NA,29000,0,22420,1014,1,35,49,26
0,"3705 CLAIRMONT ST","FLINT","MI",48532,42.997318366853,-83.7343209480077,"TwoThousandTen",29000,2162,NA,29000,0,22420,3017,3,36,49,26
0,"1217 WALDMAN AVE","FLINT","MI",48507,42.9890015038443,-83.696417788461,"TwoThousandTen",29000,2162,NA,29000,0,22420,1006,1,135,49,26
0,"4222 RED ARROW RD","FLINT","MI",48507,42.9855345518014,-83.6685195056205,"TwoThousandTen",29000,2162,NA,29000,0,22420,2003,2,35,49,26
0,"2738 SWAYZE ST","FLINT","MI",48503,43.0020004719091,-83.7235796798043,"TwoThousandTen",29000,2162,NA,29000,0,22420,4000,4,36,49,26
0,"1901 PENBROOK LN","FLINT","MI",48507,42.9871069404201,-83.7111024399584,"TwoThousandTen",29000,2162,NA,29000,0,22420,5008,5,135,49,26
0,"3817 BEECHWOOD AVE","FLINT","MI",48506,43.0393702471697,-83.637607589032,"TwoThousandTen",29000,2162,NA,29000,0,22420,2009,2,27,49,26
0,"533 RED BEECH DR","FLINT","MI",48506,43.051354,-83.637617,"TwoThousandTen",NA,870,NA,31800,0,22420,3000,3,120.06,49,26
0,"3518 DALE AVE","FLINT","MI",48506,43.0344398881761,-83.6427538537847,"TwoThousandTen",29000,2162,NA,29000,0,22420,3016,3,27,49,26
0,"924 LAFAYETTE ST","FLINT","MI",48503,43.0181527049816,-83.6640305194177,"TwoThousandTen",29000,2162,NA,29000,0,22420,3013,3,30,49,26
0,"1733 ARIZONA AVE","FLINT","MI",48506,43.0462305622725,-83.6677865725235,"TwoThousandTen",29000,2162,NA,29000,0,22420,1006,1,22,49,26
0,"4507 LYNBROOK DR","FLINT","MI",48507,42.9825813328228,-83.7038281977422,"TwoThousandTen",29000,2162,NA,29000,0,22420,5010,5,135,49,26
0,"2801 LIPPINCOTT BLVD","FLINT","MI",48507,43.0039610146724,-83.648063548951,"TwoThousandTen",29000,2162,NA,29000,0,22420,2049,2,31,49,26
0,"2959 MCCLURE AVE","FLINT","MI",48506,43.0471861237597,-83.6531555365712,"TwoThousandTen",29000,2162,NA,29000,0,22420,1016,1,24,49,26
0,"2020 STEVENSON ST","FLINT","MI",48504,43.0233831396663,-83.716397039723,"TwoThousandTen",29000,2162,NA,29000,0,22420,4003,4,13,49,26
0,"3929 AUGUSTA ST","FLINT","MI",48532,43.0013603302684,-83.7372248253935,"TwoThousandTen",29000,2162,NA,29000,0,22420,3003,3,36,49,26
0,"817 MCKEIGHAN AVE","FLINT","MI",48507,42.9836120645653,-83.6597042594062,"TwoThousandTen",29000,2162,NA,29000,0,22420,3008,3,35,49,26
0,"1224 VINCENT CT APT 21","FLINT","MI",48503,43.0237973324137,-83.7076202534472,"TwoThousandTen",29000,2162,NA,29000,0,22420,2000,2,15,49,26
0,"1637 INDIANA AVE","FLINT","MI",48506,43.0324089092688,-83.6692915564089,"TwoThousandTen",29000,2162,NA,29000,0,22420,2000,2,26,49,26
0,"3314 DAKOTA AVE","FLINT","MI",48506,43.0414966857679,-83.6452927966803,"TwoThousandTen",29000,2162,NA,29000,0,22420,2002,2,27,49,26
0,"6908 PARKBELT DR","FLINT","MI",48505,43.0736559983849,-83.7223913164938,"TwoThousandTen",29000,2162,NA,29000,0,22420,2002,2,1,49,26
0,"2731 SLOAN ST","FLINT","MI",48504,43.024128662136,-83.7270854941937,"TwoThousandTen",29000,2162,NA,29000,0,22420,2013,2,13,49,26
0,"951 LEXINGTON AVE","FLINT","MI",48507,42.9983862332956,-83.6923335961889,"TwoThousandTen",29000,2162,NA,29000,0,22420,1008,1,40,49,26
0,"2423 TUSCOLA ST","FLINT","MI",48503,43.0248740969741,-83.6585525849087,"TwoThousandTen",29000,2162,NA,29000,0,22420,2004,2,30,49,26
0,"1017 MACDONALD AVE","FLINT","MI",48507,42.9828052959298,-83.6568939151427,"TwoThousandTen",29000,2162,NA,29000,0,22420,3007,3,35,49,26
0,"3301 CHEROKEE AVE","FLINT","MI",48507,42.9931276935255,-83.6579769049957,"TwoThousandTen",29000,2162,NA,29000,0,22420,2002,2,33,49,26
0,"2927 AGREE AVE","FLINT","MI",48506,43.0479274083899,-83.653745891067,"TwoThousandTen",29000,2162,NA,29000,0,22420,1009,1,24,49,26
0,"2734 SWAYZE ST","FLINT","MI",48503,43.0020230273292,-83.7234935499996,"TwoThousandTen",29000,2162,NA,29000,0,22420,4000,4,36,49,26
0,"2610 LAKEWOOD CT","FLINT","MI",48507,42.9978499159322,-83.6690942844667,"TwoThousandTen",29000,2162,NA,29000,0,22420,1025,1,33,49,26
0,"2734 ALPHA WAY","FLINT","MI",48506,43.0608098274763,-83.6562690712549,"TwoThousandTen",29000,2162,NA,29000,0,22420,3023,3,19,49,26
0,"5510 LESLIE DR","FLINT","MI",48504,43.0635124304726,-83.7246727323315,"TwoThousandTen",29000,2162,NA,29000,0,22420,1011,1,3,49,26
0,"805 CAMPBELL ST","FLINT","MI",48507,42.9879336867203,-83.6882469935024,"TwoThousandTen",29000,2162,NA,29000,0,22420,3006,3,40,49,26
0,"3821 MANN HALL AVE","FLINT","MI",48532,43.0052499853276,-83.7354380050505,"TwoThousandTen",29000,2162,NA,29000,0,22420,1009,1,36,49,26
0,"3715 SUNRIDGE DR","FLINT","MI",48506,43.0483303054447,-83.649416865883,"TwoThousandTen",29000,2162,NA,29000,0,22420,2002,2,24,49,26
0,"6707 PARKBELT DR","FLINT","MI",48505,43.0720171688393,-83.7225787738072,"TwoThousandTen",29000,2162,NA,29000,0,22420,2003,2,1,49,26
0,"2901 HENRY ST","FLINT","MI",48506,43.0486311313212,-83.6542548885673,"TwoThousandTen",29000,2162,NA,29000,0,22420,1010,1,24,49,26
0,"2719 WILTON PL","FLINT","MI",48506,43.0643630724659,-83.6560398732425,"TwoThousandTen",29000,2162,NA,29000,0,22420,1002,1,19,49,26
0,"1908 GLENDALE AVE","FLINT","MI",48503,43.0231904201147,-83.6651576929336,"TwoThousandTen",29000,2162,NA,29000,0,22420,1012,1,30,49,26
0,"1928 WEAVER ST","FLINT","MI",48506,43.0498325783437,-83.6648637645037,"TwoThousandTen",29000,2162,NA,29000,0,22420,2003,2,23,49,26
0,"2521 WOODROW AVE","FLINT","MI",48506,43.0374900973062,-83.6585352614211,"TwoThousandTen",29000,2162,NA,29000,0,22420,3002,3,23,49,26
0,"2010 BARKS ST","FLINT","MI",48503,43.0056584898852,-83.6607456303994,"TwoThousandTen",29000,2162,NA,29000,0,22420,3018,3,32,49,26
0,"617 S LYNCH ST","FLINT","MI",48503,43.0207411588519,-83.6590719249987,"TwoThousandTen",29000,2162,NA,29000,0,22420,2016,2,30,49,26
0,"3628 CRAIG DR","FLINT","MI",48506,43.0446070852529,-83.6403234132381,"TwoThousandTen",29000,2162,NA,29000,0,22420,3008,3,24,49,26
0,"3425 HUGGINS AVE","FLINT","MI",48506,43.0459944091107,-83.6418119195112,"TwoThousandTen",29000,2162,NA,29000,0,22420,3003,3,24,49,26
0,"1705 ARLINGTON AVE","FLINT","MI",48506,43.0317193139928,-83.663230195009,"TwoThousandTen",29000,2162,NA,29000,0,22420,4001,4,26,49,26
0,"2001 N CENTER RD APT 209","FLINT","MI",48506,43.0342397218115,-83.6354915412456,"TwoThousandTen",29000,2162,NA,29000,0,22420,3006,3,27,49,26
0,"3510 PROCTOR AVE","FLINT","MI",48504,43.0470621227491,-83.7183092693035,"TwoThousandTen",29000,2162,NA,29000,0,22420,3005,3,7,49,26
0,"2201 WISCONSIN AVE","FLINT","MI",48506,43.0310850539969,-83.661652858998,"TwoThousandTen",29000,2162,NA,29000,0,22420,5006,5,26,49,26
0,"3342 HULL ST","FLINT","MI",48507,42.9791989869996,-83.6941629826268,"TwoThousandTen",NA,870,NA,29020,0,22420,3004,3,110.1,49,26
0,"420 S MEADE ST","FLINT","MI",48503,43.0229620988012,-83.6561740322221,"TwoThousandTen",29000,2162,NA,29000,0,22420,2010,2,30,49,26
0,"3602 N TERM ST","FLINT","MI",48506,43.0471829491317,-83.6444555719698,"TwoThousandTen",29000,2162,NA,29000,0,22420,3003,3,24,49,26
0,"1616 CALUMET ST","FLINT","MI",48503,43.0160161568078,-83.6684295691105,"TwoThousandTen",29000,2162,NA,29000,0,22420,3025,3,30,49,26
0,"4007 CIRCLE DR","FLINT","MI",48507,42.9873726541617,-83.665364062522,"TwoThousandTen",29000,2162,NA,29000,0,22420,2010,2,35,49,26
0,"2501 E 2ND ST","FLINT","MI",48503,43.022130019681,-83.6581938545636,"TwoThousandTen",29000,2162,NA,29000,0,22420,2008,2,30,49,26
0,"2801 LIPPINCOTT BLVD","FLINT","MI",48507,43.0039610146724,-83.648063548951,"TwoThousandTen",29000,2162,NA,29000,0,22420,2049,2,31,49,26
0,"3601 PROCTOR AVE","FLINT","MI",48504,43.0476967074173,-83.7184843831759,"TwoThousandTen",29000,2162,NA,29000,0,22420,5009,5,7,49,26
0,"402 E PULASKI AVE","FLINT","MI",48505,43.0601133149958,-83.698926745603,"TwoThousandTen",29000,2162,NA,29000,0,22420,4001,4,6,49,26
0,"4502 CHEYENNE AVE","FLINT","MI",48507,42.9836183572961,-83.6556216104774,"TwoThousandTen",29000,2162,NA,29000,0,22420,3002,3,35,49,26
0,"3306 YALE ST","FLINT","MI",48503,42.9949385430394,-83.7290990375137,"TwoThousandTen",29000,2162,NA,29000,0,22420,5009,5,36,49,26
0,"822 LELAND ST","FLINT","MI",48507,42.9873635448794,-83.6886541092854,"TwoThousandTen",29000,2162,NA,29000,0,22420,3006,3,40,49,26
0,"1000 OAK ST APT 102","FLINT","MI",48503,43.0089271914772,-83.6916946251665,"TwoThousandTen",29000,2162,NA,29000,0,22420,3022,3,28,49,26
0,"1840 HAMPDEN RD","FLINT","MI",48503,42.9961653048521,-83.7226153869713,"TwoThousandTen",29000,2162,NA,29000,0,22420,6019,6,36,49,26
0,"3421 RANGELEY ST APT 4","FLINT","MI",48503,43.0181298029821,-83.6408712646742,"TwoThousandTen",29000,2162,NA,29000,0,22420,2019,2,31,49,26
0,"5410 FLEMING RD","FLINT","MI",48504,43.0624156049697,-83.7235545392418,"TwoThousandTen",29000,2162,NA,29000,0,22420,2009,2,3,49,26
0,"1902 LYNBROOK DR","FLINT","MI",48507,42.9838329384936,-83.7095202649742,"TwoThousandTen",29000,2162,NA,29000,0,22420,5009,5,135,49,26
0,"329 ALLENDALE PL","FLINT","MI",48503,43.012713948393,-83.7260933362816,"TwoThousandTen",29000,2162,NA,29000,0,22420,5002,5,16,49,26
0,"1717 S DORT HWY","FLINT","MI",48503,43.0105683486509,-83.6541733376461,"TwoThousandTen",29000,2162,NA,29000,0,22420,2041,2,31,49,26
0,"629 W RUTH AVE","FLINT","MI",48505,43.0700513818844,-83.712237323566,"TwoThousandTen",29000,2162,NA,29000,0,22420,3008,3,2,49,26
0,"1906 E CARPENTER RD","FLINT","MI",48505,43.0759940882098,-83.6658461040604,"TwoThousandTen",29000,2162,NA,29000,0,22420,1000,1,18,49,26
0,"4401 SHAWNEE AVE","FLINT","MI",48507,42.9841024622556,-83.6564618367899,"TwoThousandTen",29000,2162,NA,29000,0,22420,3002,3,35,49,26
0,"1109 BURLINGTON DR","FLINT","MI",48503,43.0154840406832,-83.6390130053537,"TwoThousandTen",29000,2162,NA,29000,0,22420,2034,2,31,49,26
0,"201 HASTINGS ST","FLINT","MI",48503,43.0247727641044,-83.6623032276158,"TwoThousandTen",29000,2162,NA,29000,0,22420,1004,1,30,49,26
0,"1827 PARK FOREST DR","FLINT","MI",48507,42.9876570563905,-83.7079993761605,"TwoThousandTen",29000,2162,NA,29000,0,22420,5015,5,135,49,26
0,"4121 MENTON ST","FLINT","MI",48507,42.986486602026,-83.6664889473191,"TwoThousandTen",29000,2162,NA,29000,0,22420,2016,2,35,49,26
0,"3118 BRANDON ST","FLINT","MI",48503,42.9963776505782,-83.7277833810367,"TwoThousandTen",29000,2162,NA,29000,0,22420,5008,5,36,49,26
0,"3107 CAMDEN AVE","FLINT","MI",48507,42.993573376422,-83.6879359778687,"TwoThousandTen",29000,2162,NA,29000,0,22420,2008,2,40,49,26
0,"605 CHANDLER ST","FLINT","MI",48503,43.0208693604844,-83.6600509258685,"TwoThousandTen",29000,2162,NA,29000,0,22420,2022,2,30,49,26
0,"1525 S FRANKLIN AVE","FLINT","MI",48503,43.0130262422135,-83.6647058908402,"TwoThousandTen",29000,2162,NA,29000,0,22420,3033,3,30,49,26
0,"909 BARRIE AVE","FLINT","MI",48507,42.9948393918062,-83.6907915177817,"TwoThousandTen",29000,2162,NA,29000,0,22420,1022,1,40,49,26
0,"902 E RIDGEWAY AVE","FLINT","MI",48505,43.06193446473,-83.6890772609648,"TwoThousandTen",29000,2162,NA,29000,0,22420,2047,2,17,49,26
0,"4313 MILTON DR","FLINT","MI",48507,42.9846249127364,-83.67369240258,"TwoThousandTen",29000,2162,NA,29000,0,22420,1006,1,35,49,26
0,"2720 WESTWOOD PKWY","FLINT","MI",48503,42.9956272694151,-83.7203966980833,"TwoThousandTen",29000,2162,NA,29000,0,22420,6028,6,36,49,26
0,"210 W LORADO AVE","FLINT","MI",48505,43.0709617962547,-83.7072680668194,"TwoThousandTen",29000,2162,NA,29000,0,22420,3000,3,2,49,26
0,"3101 CHEROKEE AVE","FLINT","MI",48507,42.9945683166934,-83.658017816076,"TwoThousandTen",29000,2162,NA,29000,0,22420,1022,1,33,49,26
0,"3826 PITKIN AVE","FLINT","MI",48506,43.0309009867467,-83.6374570761835,"TwoThousandTen",29000,2162,NA,29000,0,22420,4027,4,27,49,26
0,"602 KENSINGTON AVE","FLINT","MI",48503,43.0210893202181,-83.6665987750912,"TwoThousandTen",29000,2162,NA,29000,0,22420,1022,1,30,49,26
0,"3506 MACKIN RD","FLINT","MI",48504,43.031916740198,-83.7364037896092,"TwoThousandTen",29000,2162,NA,29000,0,22420,2028,2,12,49,26
0,"1214 E CARPENTER RD","FLINT","MI",48505,43.0756883217699,-83.6803908212159,"TwoThousandTen",29000,2162,NA,29000,0,22420,2004,2,17,49,26
0,"3243 W LYNDON AVE","FLINT","MI",48504,43.0630837569125,-83.7425908183429,"TwoThousandTen",NA,870,NA,55980,0,22420,2060,2,105.01,49,26
0,"3745 DOLPHAINE LN","FLINT","MI",48506,43.0474196959191,-83.6389041841264,"TwoThousandTen",29000,2162,NA,29000,0,22420,3002,3,24,49,26
0,"2010 N DORT HWY","FLINT","MI",48506,43.0338221165002,-83.6552497308321,"TwoThousandTen",29000,2162,NA,29000,0,22420,1025,1,27,49,26
0,"2706 PLAINFIELD AVE","FLINT","MI",48506,43.0586334959166,-83.6565985388114,"TwoThousandTen",29000,2162,NA,29000,0,22420,3020,3,19,49,26
0,"1820 CHELSEA CIR","FLINT","MI",48503,43.0014096903741,-83.7091398591614,"TwoThousandTen",29000,2162,NA,29000,0,22420,6001,6,36,49,26
0,"3816 ORR ST","FLINT","MI",48532,43.0046643469135,-83.73542122325,"TwoThousandTen",29000,2162,NA,29000,0,22420,1009,1,36,49,26
0,"3207 BRANCH RD","FLINT","MI",48506,43.0435552793676,-83.6506080794324,"TwoThousandTen",29000,2162,NA,29000,0,22420,1018,1,24,49,26
0,"3462 EVERGREEN PKWY","FLINT","MI",48503,43.0082901739311,-83.6431954144167,"TwoThousandTen",29000,2162,NA,29000,0,22420,1005,1,31,49,26
0,"4807 CANTERBURY LN","FLINT","MI",48504,43.0577887935601,-83.7315068468924,"TwoThousandTen",29000,2162,NA,29000,0,22420,1000,1,5,49,26
0,"424 W MARENGO AVE","FLINT","MI",48505,43.0595220008225,-83.7088603438558,"TwoThousandTen",29000,2162,NA,29000,0,22420,2001,2,6,49,26
0,"3710 BRUNSWICK AVE","FLINT","MI",48507,42.9893743186054,-83.6906909748868,"TwoThousandTen",29000,2162,NA,29000,0,22420,2031,2,40,49,26
0,"725 COLUMBIA DR","FLINT","MI",48503,43.028538239751,-83.6919116335317,"TwoThousandTen",29000,2162,NA,29000,0,22420,1021,1,136,49,26
0,"3201 COLORADO AVE","FLINT","MI",48506,43.0450608233715,-83.647992377187,"TwoThousandTen",29000,2162,NA,29000,0,22420,2007,2,24,49,26
0,"6021 COVERED WAGONS TRL","FLINT","MI",48532,43.0288369024362,-83.8018963110132,"TwoThousandTen",NA,870,NA,29020,0,22420,4002,4,108.1,49,26
0,"5911 SUSAN ST","FLINT","MI",48505,43.0662294221254,-83.7200150327091,"TwoThousandTen",29000,2162,NA,29000,0,22420,2002,2,3,49,26
0,"5406 LESLIE DR","FLINT","MI",48504,43.062692585628,-83.7246894204675,"TwoThousandTen",29000,2162,NA,29000,0,22420,1011,1,3,49,26
0,"4313 MILTON DR","FLINT","MI",48507,42.9846249127364,-83.67369240258,"TwoThousandTen",29000,2162,NA,29000,0,22420,1006,1,35,49,26
0,"642 W STEWART AVE","FLINT","MI",48505,43.0541436345982,-83.71242172741,"TwoThousandTen",29000,2162,NA,29000,0,22420,1008,1,6,49,26
0,"4102 STERLING ST","FLINT","MI",48504,43.0518617239739,-83.7204457546844,"TwoThousandTen",29000,2162,NA,29000,0,22420,2006,2,7,49,26
0,"459 E ATHERTON RD","FLINT","MI",48507,42.9891025181339,-83.6683511400344,"TwoThousandTen",29000,2162,NA,29000,0,22420,1011,1,33,49,26
0,"2713 BRANDON ST","FLINT","MI",48503,42.9990920435509,-83.7213361874877,"TwoThousandTen",29000,2162,NA,29000,0,22420,5001,5,36,49,26
0,"4302 WESTERN RD LOT 54","FLINT","MI",48506,43.0528023766122,-83.6553649611573,"TwoThousandTen",29000,2162,NA,29000,0,22420,3028,3,19,49,26
0,"3729 BEECHER RD","FLINT","MI",48503,43.0113859843546,-83.7321696738662,"TwoThousandTen",29000,2162,NA,29000,0,22420,4014,4,16,49,26
0,"1810 MONTANA AVE","FLINT","MI",48506,43.0437864353817,-83.666521630996,"TwoThousandTen",29000,2162,NA,29000,0,22420,1017,1,22,49,26
0,"3289 CHEYENNE AVE","FLINT","MI",48507,42.9932536451307,-83.6559483168302,"TwoThousandTen",29000,2162,NA,29000,0,22420,2001,2,33,49,26
0,"1225 GRANDY ST","FLINT","MI",48503,43.0314666486067,-83.6821512020175,"TwoThousandTen",29000,2162,NA,29000,0,22420,1010,1,26,49,26
0,"742 LINCOLN AVE","FLINT","MI",48507,42.991020418702,-83.6868999343383,"TwoThousandTen",29000,2162,NA,29000,0,22420,2017,2,40,49,26
0,"814 MCKEIGHAN AVE","FLINT","MI",48507,42.983435495088,-83.6594199460759,"TwoThousandTen",29000,2162,NA,29000,0,22420,3007,3,35,49,26
0,"2013 WEAVER ST","FLINT","MI",48506,43.0500260950232,-83.6639263108732,"TwoThousandTen",29000,2162,NA,29000,0,22420,2001,2,23,49,26
0,"3209 PENCOMBE PL","FLINT","MI",48503,43.0106357936194,-83.7250027409886,"TwoThousandTen",29000,2162,NA,29000,0,22420,5005,5,16,49,26
0,"4225 BRANCH RD","FLINT","MI",48506,43.0531842556102,-83.650660764011,"TwoThousandTen",29000,2162,NA,29000,0,22420,3028,3,19,49,26
0,"610 S VERNON AVE","FLINT","MI",48503,43.0205144176876,-83.66125237001,"TwoThousandTen",29000,2162,NA,29000,0,22420,1015,1,30,49,26
0,"3018 COLORADO AVE","FLINT","MI",48506,43.0448481730215,-83.6519413572695,"TwoThousandTen",29000,2162,NA,29000,0,22420,1017,1,24,49,26
0,"2927 AGREE AVE","FLINT","MI",48506,43.0479274083899,-83.653745891067,"TwoThousandTen",29000,2162,NA,29000,0,22420,1009,1,24,49,26
0,"1918 PARK FOREST DR","FLINT","MI",48507,42.9878269134588,-83.7097498097692,"TwoThousandTen",29000,2162,NA,29000,0,22420,5001,5,135,49,26
0,"1714 GREENBROOK LN","FLINT","MI",48507,42.9829280394628,-83.7004948050295,"TwoThousandTen",29000,2162,NA,29000,0,22420,5010,5,135,49,26
0,"6905 DUPONT ST","FLINT","MI",48505,43.0737369796355,-83.7140694488202,"TwoThousandTen",29000,2162,NA,29000,0,22420,3006,3,1,49,26
0,"2502 MISSOURI AVE","FLINT","MI",48506,43.0287255881295,-83.657816817412,"TwoThousandTen",29000,2162,NA,29000,0,22420,5018,5,26,49,26
0,"1522 MULBERRY LN","FLINT","MI",48507,42.9865273897549,-83.6995258887581,"TwoThousandTen",29000,2162,NA,29000,0,22420,4006,4,135,49,26
0,"1918 GREENBRIAR LN","FLINT","MI",48507,42.9853406651039,-83.7103615244532,"TwoThousandTen",29000,2162,NA,29000,0,22420,5002,5,135,49,26
0,"1260 LEISURE DR","FLINT","MI",48507,42.950836884272,-83.6982086920048,"TwoThousandTen",NA,870,NA,56160,0,22420,2008,2,129.05,49,26
0,"614 VICTORIA AVE","FLINT","MI",48507,42.9938014063888,-83.6837731725463,"TwoThousandTen",29000,2162,NA,29000,0,22420,1018,1,40,49,26
0,"1115 LELAND ST","FLINT","MI",48507,42.9867467799007,-83.6946261965479,"TwoThousandTen",29000,2162,NA,29000,0,22420,3005,3,135,49,26
0,"1820 WINDSOR LN","FLINT","MI",48507,42.986640005147,-83.7086720395135,"TwoThousandTen",29000,2162,NA,29000,0,22420,5008,5,135,49,26
0,"4005 GREENBROOK LN","FLINT","MI",48507,42.9867393843383,-83.7075372679523,"TwoThousandTen",29000,2162,NA,29000,0,22420,5000,5,135,49,26
0,"1014 MACDONALD AVE","FLINT","MI",48507,42.9826171952858,-83.657488574032,"TwoThousandTen",29000,2162,NA,29000,0,22420,3006,3,35,49,26
0,"5805 GRIGGS DR","FLINT","MI",48504,43.0655945454953,-83.726559759371,"TwoThousandTen",29000,2162,NA,29000,0,22420,1008,1,3,49,26
0,"3422 HOLLY AVE","FLINT","MI",48506,43.0351537012314,-83.6438520381965,"TwoThousandTen",29000,2162,NA,29000,0,22420,3008,3,27,49,26
0,"632 VICTORIA AVE","FLINT","MI",48507,42.9937932245706,-83.6841895361827,"TwoThousandTen",29000,2162,NA,29000,0,22420,1018,1,40,49,26
0,"3045 AYRE CT","FLINT","MI",48506,43.051354,-83.637617,"TwoThousandTen",NA,870,NA,31800,0,22420,3000,3,120.06,49,26
0,"510 E RIDGEWAY AVE","FLINT","MI",48505,43.0617235396664,-83.6974905284625,"TwoThousandTen",29000,2162,NA,29000,0,22420,3024,3,4,49,26
0,"607 E 2ND AVE APT 814","FLINT","MI",48502,43.0202193350253,-83.694239166977,"TwoThousandTen",29000,2162,NA,29000,0,22420,2015,2,28,49,26
0,"1333 JANE AVE","FLINT","MI",48506,43.0375752069991,-83.6755473818525,"TwoThousandTen",29000,2162,NA,29000,0,22420,5002,5,22,49,26
0,"6305 CECIL DR","FLINT","MI",48505,43.0702152977968,-83.6686647878663,"TwoThousandTen",29000,2162,NA,29000,0,22420,1010,1,18,49,26
0,"5805 GRIGGS DR","FLINT","MI",48504,43.0655945454953,-83.726559759371,"TwoThousandTen",29000,2162,NA,29000,0,22420,1008,1,3,49,26
0,"1814 W HOME AVE","FLINT","MI",48504,43.0676608938851,-83.7270520561373,"TwoThousandTen",29000,2162,NA,29000,0,22420,1014,1,1,49,26
0,"4509 WARRINGTON DR","FLINT","MI",48504,43.0558865281267,-83.7262620538137,"TwoThousandTen",29000,2162,NA,29000,0,22420,1008,1,5,49,26
0,"1225 ELDORADO DR","FLINT","MI",48504,43.0289398029251,-83.7409201951905,"TwoThousandTen",29000,2162,NA,29000,0,22420,1008,1,13,49,26
0,"951 JOHNSON AVE","FLINT","MI",48532,43.0053314525286,-83.7341158560459,"TwoThousandTen",29000,2162,NA,29000,0,22420,1011,1,36,49,26
0,"2022 FENMORE DR","FLINT","MI",48504,43.0640153462206,-83.7284212100272,"TwoThousandTen",29000,2162,NA,29000,0,22420,1002,1,3,49,26
0,"607 E 2ND AVE APT 513","FLINT","MI",48502,43.0202193350253,-83.694239166977,"TwoThousandTen",29000,2162,NA,29000,0,22420,2015,2,28,49,26
0,"3438 LYNN ST","FLINT","MI",48503,43.0057127211013,-83.6448040420218,"TwoThousandTen",29000,2162,NA,29000,0,22420,2047,2,31,49,26
0,"2113 ARLINGTON AVE","FLINT","MI",48506,43.0352433413341,-83.6633385886408,"TwoThousandTen",29000,2162,NA,29000,0,22420,1005,1,23,49,26
0,"2034 CHURCH ST","FLINT","MI",48503,43.0018180025766,-83.6811034723967,"TwoThousandTen",29000,2162,NA,29000,0,22420,2003,2,38,49,26
0,"1318 SAN JUAN DR","FLINT","MI",48504,43.0295564991959,-83.7388382530745,"TwoThousandTen",29000,2162,NA,29000,0,22420,1010,1,13,49,26
0,"3113 BURGESS ST","FLINT","MI",48504,43.0437912924,-83.7222321308139,"TwoThousandTen",29000,2162,NA,29000,0,22420,3006,3,9,49,26
0,"1329 BELLCREEK DR","FLINT","MI",48505,43.0706065467125,-83.7206745475601,"TwoThousandTen",29000,2162,NA,29000,0,22420,2007,2,1,49,26
0,"127 E GENESEE ST","FLINT","MI",48505,43.0432613489753,-83.7041375688292,"TwoThousandTen",29000,2162,NA,29000,0,22420,2001,2,11,49,26
0,"3100 LAKEWOOD DR","FLINT","MI",48507,42.9921044622385,-83.6702149890847,"TwoThousandTen",29000,2162,NA,29000,0,22420,1025,1,33,49,26
0,"632 LOCHHEAD AVE","FLINT","MI",48507,42.9849692683711,-83.6623708178114,"TwoThousandTen",29000,2162,NA,29000,0,22420,2015,2,35,49,26
0,"724 EVERGREEN AVE","FLINT","MI",48503,43.0096618876034,-83.6734109650652,"TwoThousandTen",29000,2162,NA,29000,0,22420,1013,1,32,49,26
0,"2803 WILTON PL","FLINT","MI",48506,43.0649952857259,-83.6552819188266,"TwoThousandTen",29000,2162,NA,29000,0,22420,1003,1,19,49,26
0,"5908 SUSAN ST","FLINT","MI",48505,43.0663525958598,-83.7198804634864,"TwoThousandTen",29000,2162,NA,29000,0,22420,2001,2,3,49,26
0,"2932 MACKIN RD","FLINT","MI",48504,43.0299635937739,-83.7300940503403,"TwoThousandTen",29000,2162,NA,29000,0,22420,2029,2,12,49,26
0,"1206 MARKHAM ST","FLINT","MI",48507,42.9825029828073,-83.6957881194803,"TwoThousandTen",29000,2162,NA,29000,0,22420,3015,3,135,49,26
0,"1319 W 2ND ST","FLINT","MI",48503,43.0090102037474,-83.703145983591,"TwoThousandTen",29000,2162,NA,29000,0,22420,3018,3,37,49,26
0,"714 COLUMBIA LN","FLINT","MI",48503,43.0281461117697,-83.6924600532842,"TwoThousandTen",29000,2162,NA,29000,0,22420,1020,1,136,49,26
0,"2637 SENECA ST","FLINT","MI",48504,43.0400358018199,-83.7305481908171,"TwoThousandTen",29000,2162,NA,29000,0,22420,1008,1,9,49,26
0,"631 CRAWFORD ST","FLINT","MI",48507,42.9865391467425,-83.6838970466853,"TwoThousandTen",29000,2162,NA,29000,0,22420,3016,3,40,49,26
0,"634 W STEWART AVE","FLINT","MI",48505,43.0541455642464,-83.7122712952492,"TwoThousandTen",29000,2162,NA,29000,0,22420,1008,1,6,49,26
0,"527 S VERNON AVE","FLINT","MI",48503,43.0211850285108,-83.6611283042757,"TwoThousandTen",29000,2162,NA,29000,0,22420,2021,2,30,49,26
0,"2746 YALE ST","FLINT","MI",48503,42.9983125686031,-83.7216172935093,"TwoThousandTen",29000,2162,NA,29000,0,22420,5001,5,36,49,26
0,"1215 STOCKTON ST","FLINT","MI",48503,43.0064391803508,-83.6907774195239,"TwoThousandTen",29000,2162,NA,29000,0,22420,3032,3,28,49,26
0,"3814 KENT ST","FLINT","MI",48503,43.0077318420341,-83.6360424943203,"TwoThousandTen",29000,2162,NA,29000,0,22420,1007,1,31,49,26
0,"3310 BRANDON ST","FLINT","MI",48503,42.9955345201434,-83.7296308191638,"TwoThousandTen",29000,2162,NA,29000,0,22420,5008,5,36,49,26
0,"2624 CUMINGS AVE","FLINT","MI",48503,43.0009941130009,-83.7210168143118,"TwoThousandTen",29000,2162,NA,29000,0,22420,4014,4,37,49,26
0,"1425 NEUBERT AVE","FLINT","MI",48507,42.9918397740303,-83.698930031862,"TwoThousandTen",29000,2162,NA,29000,0,22420,2018,2,135,49,26
0,"2863 PROSPECT ST","FLINT","MI",48504,43.0284579831958,-83.7282956818847,"TwoThousandTen",29000,2162,NA,29000,0,22420,2002,2,13,49,26
0,"516 KENSINGTON AVE","FLINT","MI",48503,43.0218080036352,-83.6666316193123,"TwoThousandTen",29000,2162,NA,29000,0,22420,1022,1,30,49,26
0,"3725 S SAGINAW ST STE 105","FLINT","MI",48507,42.9906459751412,-83.6763720626907,"TwoThousandTen",29000,2162,NA,29000,0,22420,2036,2,38,49,26
0,"501 S MEADE ST APT 2","FLINT","MI",48503,43.0220362075605,-83.6559248232904,"TwoThousandTen",29000,2162,NA,29000,0,22420,2012,2,30,49,26
0,"4436 LENROSE AVE","FLINT","MI",48532,43.0060862390816,-83.7700297531293,"TwoThousandTen",NA,870,NA,29020,0,22420,3015,3,109.1,49,26
0,"4028 PARK FOREST DR","FLINT","MI",48507,42.9859889086607,-83.7123616728968,"TwoThousandTen",29000,2162,NA,29000,0,22420,5003,5,135,49,26
0,"5020 MURPHY DR","FLINT","MI",48506,43.0569563431994,-83.6157295223627,"TwoThousandTen",NA,870,NA,31800,0,22420,2006,2,120.08,49,26
0,"643 CRAWFORD ST","FLINT","MI",48507,42.9865305406819,-83.6842014103216,"TwoThousandTen",29000,2162,NA,29000,0,22420,3016,3,40,49,26
0,"3221 BUICK ST APT 96","FLINT","MI",48505,43.0448269294768,-83.698941427691,"TwoThousandTen",29000,2162,NA,29000,0,22420,1004,1,11,49,26
0,"3621 PENBROOK LN APT 15","FLINT","MI",48507,42.9904271505076,-83.7105230161871,"TwoThousandTen",29000,2162,NA,29000,0,22420,2041,2,135,49,26
0,"1018 E ALMA AVE","FLINT","MI",48505,43.0730824094306,-83.6871144337183,"TwoThousandTen",29000,2162,NA,29000,0,22420,1008,1,17,49,26
0,"822 W HEMPHILL RD","FLINT","MI",48507,42.9814997905203,-83.6889017006654,"TwoThousandTen",29000,2162,NA,29000,0,22420,4019,4,40,49,26
0,"805 LELAND ST","FLINT","MI",48507,42.9871919096661,-83.6882079816237,"TwoThousandTen",29000,2162,NA,29000,0,22420,3011,3,40,49,26
0,"632 HURON ST","FLINT","MI",48507,42.9845619253873,-83.6838542166672,"TwoThousandTen",29000,2162,NA,29000,0,22420,4007,4,40,49,26
0,"1903 LAUREL OAK DR","FLINT","MI",48507,42.9827958821978,-83.7109012391431,"TwoThousandTen",29000,2162,NA,29000,0,22420,5003,5,135,49,26
0,"G3100 MILLER RD APT 7C","FLINT","MI",48507,42.970942,-83.703232,"TwoThousandTen",NA,870,NA,29020,0,22420,4001,4,110.1,49,26
0,"1046 E LORADO AVE","FLINT","MI",48505,43.0709349634423,-83.6864355721708,"TwoThousandTen",29000,2162,NA,29000,0,22420,1023,1,17,49,26
0,"2754 THOMAS ST","FLINT","MI",48504,43.0214939939183,-83.728748587763,"TwoThousandTen",29000,2162,NA,29000,0,22420,1003,1,16,49,26
0,"1021 BARLOW AVE","FLINT","MI",48507,42.9994325560671,-83.6935123276134,"TwoThousandTen",29000,2162,NA,29000,0,22420,2004,2,135,49,26
0,"3209 WOLCOTT ST","FLINT","MI",48504,43.0298859105914,-83.7354033665476,"TwoThousandTen",29000,2162,NA,29000,0,22420,1004,1,13,49,26
0,"335 E RIDGEWAY AVE","FLINT","MI",48505,43.0618986653697,-83.7004354784411,"TwoThousandTen",29000,2162,NA,29000,0,22420,3020,3,4,49,26
0,"3002 MENOMINEE AVE","FLINT","MI",48507,42.9953030427608,-83.6551757858776,"TwoThousandTen",29000,2162,NA,29000,0,22420,2001,2,33,49,26
0,"109 W YORK AVE","FLINT","MI",48505,43.0736749988012,-83.706356156166,"TwoThousandTen",29000,2162,NA,29000,0,22420,1006,1,2,49,26
0,"3810 LARCHMONT ST","FLINT","MI",48532,42.9966507726492,-83.7355070913606,"TwoThousandTen",29000,2162,NA,29000,0,22420,3016,3,36,49,26
0,"4813 BRANCH RD","FLINT","MI",48506,43.059121745819,-83.6508545040338,"TwoThousandTen",29000,2162,NA,29000,0,22420,3021,3,19,49,26
0,"3813 BROWNELL BLVD","FLINT","MI",48504,43.0491085460108,-83.7277152794355,"TwoThousandTen",29000,2162,NA,29000,0,22420,4004,4,7,49,26
0,"634 W BISHOP AVE","FLINT","MI",48505,43.0569142408273,-83.7123989100611,"TwoThousandTen",29000,2162,NA,29000,0,22420,1005,1,6,49,26
0,"3176 W CASS AVE","FLINT","MI",48504,43.0807789093888,-83.7407952754576,"TwoThousandTen",NA,870,NA,55980,0,22420,3003,3,105.04,49,26
0,"415 W 4TH AVE","FLINT","MI",48503,43.0203927166458,-83.6991857984182,"TwoThousandTen",29000,2162,NA,29000,0,22420,2030,2,28,49,26
0,"5813 GRIGGS DR","FLINT","MI",48504,43.0656450320559,-83.7265596870061,"TwoThousandTen",29000,2162,NA,29000,0,22420,1008,1,3,49,26
0,"3298 CHEYENNE AVE","FLINT","MI",48507,42.9931768160113,-83.6561260816658,"TwoThousandTen",29000,2162,NA,29000,0,22420,1023,1,33,49,26
0,"905 MCKEIGHAN AVE","FLINT","MI",48507,42.9836218801354,-83.6587842904335,"TwoThousandTen",29000,2162,NA,29000,0,22420,3008,3,35,49,26
0,"801 E 2ND ST","FLINT","MI",48503,43.0190293944478,-83.6812188040289,"TwoThousandTen",29000,2162,NA,29000,0,22420,1010,1,29,49,26
0,"700 E COURT ST APT 301","FLINT","MI",48503,43.0159463931824,-83.6801186085196,"TwoThousandTen",29000,2162,NA,29000,0,22420,2006,2,29,49,26
0,"2607 BROOKSIDE DR","FLINT","MI",48503,43.0168123127192,-83.6568371942743,"TwoThousandTen",29000,2162,NA,29000,0,22420,3009,3,30,49,26
0,"1913 GREENBRIAR LN","FLINT","MI",48507,42.9851617313281,-83.7102151141774,"TwoThousandTen",29000,2162,NA,29000,0,22420,5005,5,135,49,26
0,"414 EDMUND ST","FLINT","MI",48505,43.0503266041566,-83.698645672925,"TwoThousandTen",29000,2162,NA,29000,0,22420,2020,2,8,49,26
0,"1114 CLANCY AVE","FLINT","MI",48503,43.0020953402925,-83.7250136292897,"TwoThousandTen",29000,2162,NA,29000,0,22420,4001,4,36,49,26
0,"1831 WHITTLESEY ST","FLINT","MI",48503,43.0088639292516,-83.6596210059578,"TwoThousandTen",29000,2162,NA,29000,0,22420,3009,3,32,49,26
0,"4515 LYNBROOK DR","FLINT","MI",48507,42.9827247836539,-83.7038269275549,"TwoThousandTen",29000,2162,NA,29000,0,22420,5010,5,135,49,26
0,"430 W FOSS AVE","FLINT","MI",48505,43.07164902022,-83.7093696040924,"TwoThousandTen",29000,2162,NA,29000,0,22420,1011,1,2,49,26
0,"1324 W HOME AVE","FLINT","MI",48505,43.0676954532207,-83.7215803688713,"TwoThousandTen",29000,2162,NA,29000,0,22420,2010,2,1,49,26
0,"3018 CHEYENNE AVE","FLINT","MI",48507,42.995174009005,-83.6561871342976,"TwoThousandTen",29000,2162,NA,29000,0,22420,1023,1,33,49,26
0,"1717 WOODSLEA DR","FLINT","MI",48507,42.9996029346609,-83.6606707883417,"TwoThousandTen",29000,2162,NA,29000,0,22420,1000,1,33,49,26
0,"4402 HUCKLEBERRY LN","FLINT","MI",48507,42.9831706781093,-83.7025693409,"TwoThousandTen",29000,2162,NA,29000,0,22420,5010,5,135,49,26
0,"3314 BRENTWOOD DR","FLINT","MI",48503,43.0095771621069,-83.7268532796637,"TwoThousandTen",29000,2162,NA,29000,0,22420,5007,5,16,49,26
0,"3131 CHAMBERS ST","FLINT","MI",48507,42.9945981173494,-83.6478637818714,"TwoThousandTen",29000,2162,NA,29000,0,22420,2002,2,34,49,26
0,"1000 BEACH ST","FLINT","MI",48502,43.0107832874535,-83.6881907533612,"TwoThousandTen",29000,2162,NA,29000,0,22420,1003,1,28,49,26
0,"3617 SHERWOOD DR","FLINT","MI",48503,43.0122255231465,-83.7290059289607,"TwoThousandTen",29000,2162,NA,29000,0,22420,4016,4,16,49,26
0,"3008 COMANCHE AVE","FLINT","MI",48507,42.9953157848216,-83.6592463214353,"TwoThousandTen",29000,2162,NA,29000,0,22420,1021,1,33,49,26
0,"1514 WYOMING AVE","FLINT","MI",48506,43.0452099757353,-83.6726842172696,"TwoThousandTen",29000,2162,NA,29000,0,22420,1010,1,22,49,26
0,"4714 CLOVERLAWN DR","FLINT","MI",48504,43.0574711656605,-83.7291915831825,"TwoThousandTen",29000,2162,NA,29000,0,22420,2005,2,5,49,26
0,"1657 MARYLAND AVE","FLINT","MI",48506,43.040676726727,-83.6691547458704,"TwoThousandTen",29000,2162,NA,29000,0,22420,3005,3,22,49,26
0,"1408 BEAVER AVE","FLINT","MI",48503,43.0001308656269,-83.723367461539,"TwoThousandTen",29000,2162,NA,29000,0,22420,4013,4,36,49,26
0,"928 TACKEN ST","FLINT","MI",48532,43.0061059013992,-83.7381665934867,"TwoThousandTen",29000,2162,NA,29000,0,22420,1003,1,36,49,26
0,"6614 SALLY CT","FLINT","MI",48505,43.0708503904477,-83.7194819147827,"TwoThousandTen",29000,2162,NA,29000,0,22420,3002,3,1,49,26
0,"711 W RIDGEWAY AVE","FLINT","MI",48505,43.0617388471574,-83.7145601284943,"TwoThousandTen",29000,2162,NA,29000,0,22420,3008,3,3,49,26
0,"1217 KENSINGTON AVE","FLINT","MI",48503,43.0154368092778,-83.6661420088095,"TwoThousandTen",29000,2162,NA,29000,0,22420,3027,3,30,49,26
0,"1605 CRESTBROOK LN","FLINT","MI",48507,42.9845761606356,-83.6998069055532,"TwoThousandTen",29000,2162,NA,29000,0,22420,4005,4,135,49,26
0,"1838 POLLY ST","FLINT","MI",48505,43.0736001571627,-83.6671142253569,"TwoThousandTen",29000,2162,NA,29000,0,22420,1005,1,18,49,26
0,"2108 MAYBURY AVE","FLINT","MI",48503,43.0032878171416,-83.6650672396511,"TwoThousandTen",29000,2162,NA,29000,0,22420,4002,4,32,49,26
0,"2614 TERRACE DR","FLINT","MI",48507,42.9994436965136,-83.6586178886754,"TwoThousandTen",29000,2162,NA,29000,0,22420,1001,1,33,49,26
0,"916 BURLINGTON DR","FLINT","MI",48503,43.017954295516,-83.6394773640896,"TwoThousandTen",29000,2162,NA,29000,0,22420,2019,2,31,49,26
0,"705 COLUMBIA DR","FLINT","MI",48503,43.0285364215692,-83.6921720375721,"TwoThousandTen",29000,2162,NA,29000,0,22420,1021,1,136,49,26
0,"2801 BRANDON ST","FLINT","MI",48503,42.9982412646737,-83.7231802692968,"TwoThousandTen",29000,2162,NA,29000,0,22420,5003,5,36,49,26
0,"355 E ELDRIDGE AVE","FLINT","MI",48505,43.0551356751555,-83.6996719418876,"TwoThousandTen",29000,2162,NA,29000,0,22420,4008,4,6,49,26
0,"1509 COLUMBIA DR","FLINT","MI",48503,43.029382448395,-83.6927137858659,"TwoThousandTen",29000,2162,NA,29000,0,22420,1019,1,136,49,26
0,"2701 FIELDING ST","FLINT","MI",48503,43.0048242749115,-83.7241060464893,"TwoThousandTen",29000,2162,NA,29000,0,22420,2012,2,36,49,26
0,"1617 W MCCLELLAN ST","FLINT","MI",48504,43.0436398344284,-83.7242909000902,"TwoThousandTen",29000,2162,NA,29000,0,22420,2004,2,9,49,26
0,"3807 W KEARSLEY ST","FLINT","MI",48532,43.0083310334007,-83.7362162727281,"TwoThousandTen",29000,2162,NA,29000,0,22420,4011,4,16,49,26
0,"2852 WOLCOTT ST","FLINT","MI",48504,43.0279217331066,-83.7284200989253,"TwoThousandTen",29000,2162,NA,29000,0,22420,2002,2,13,49,26
0,"213 E BELVIDERE AVE","FLINT","MI",48503,42.9948924252042,-83.675008687991,"TwoThousandTen",29000,2162,NA,29000,0,22420,2026,2,38,49,26
0,"5917 GLENN AVE","FLINT","MI",48505,43.0664916762895,-83.7173775735577,"TwoThousandTen",29000,2162,NA,29000,0,22420,3003,3,3,49,26
0,"408 HASTINGS ST","FLINT","MI",48503,43.0232413465749,-83.6624197928318,"TwoThousandTen",29000,2162,NA,29000,0,22420,1006,1,30,49,26
0,"3743 PITKIN AVE","FLINT","MI",48506,43.0310536028726,-83.6391803367317,"TwoThousandTen",29000,2162,NA,29000,0,22420,4025,4,27,49,26
0,"1509 VERMILYA AVE","FLINT","MI",48507,42.9911079071036,-83.6997291552353,"TwoThousandTen",29000,2162,NA,29000,0,22420,2020,2,135,49,26
0,"1328 W MAPLE AVE","FLINT","MI",48507,42.9594523553145,-83.704799229636,"TwoThousandTen",NA,870,NA,29020,0,22420,5011,5,110.1,49,26
0,"206 W YORK AVE","FLINT","MI",48505,43.0738435396603,-83.7072385361416,"TwoThousandTen",29000,2162,NA,29000,0,22420,1000,1,2,49,26
0,"3505 DALE AVE","FLINT","MI",48506,43.0346176857587,-83.6428453041101,"TwoThousandTen",29000,2162,NA,29000,0,22420,3007,3,27,49,26
0,"741 VICTORIA AVE","FLINT","MI",48507,42.9935580623141,-83.6866661630883,"TwoThousandTen",29000,2162,NA,29000,0,22420,2008,2,40,49,26
0,"1601 WAYNE ST","FLINT","MI",48503,43.0066892297831,-83.662857652236,"TwoThousandTen",29000,2162,NA,29000,0,22420,2006,2,32,49,26
0,"730 VICTORIA AVE","FLINT","MI",48507,42.9937441902112,-83.686438200548,"TwoThousandTen",29000,2162,NA,29000,0,22420,1019,1,40,49,26
0,"3113 CHEROKEE AVE","FLINT","MI",48507,42.9944814595506,-83.6580153499106,"TwoThousandTen",29000,2162,NA,29000,0,22420,1022,1,33,49,26
0,"3328 STONEGATE DR","FLINT","MI",48507,42.9928095291059,-83.6449229325755,"TwoThousandTen",29000,2162,NA,29000,0,22420,2001,2,34,49,26
0,"1310 CRAWFORD ST","FLINT","MI",48507,42.9861434618203,-83.6970481107526,"TwoThousandTen",29000,2162,NA,29000,0,22420,3006,3,135,49,26
0,"1219 HURON ST","FLINT","MI",48507,42.9843904330341,-83.6958445742055,"TwoThousandTen",29000,2162,NA,29000,0,22420,3011,3,135,49,26
0,"1934 GREENBRIAR LN","FLINT","MI",48507,42.9853377528709,-83.7107483375185,"TwoThousandTen",29000,2162,NA,29000,0,22420,5002,5,135,49,26
0,"308 BURROUGHS AVE","FLINT","MI",48507,42.9872658767119,-83.6706948295773,"TwoThousandTen",29000,2162,NA,29000,0,22420,2006,2,35,49,26
0,"317 BURROUGHS AVE","FLINT","MI",48507,42.9874476788437,-83.6704889380994,"TwoThousandTen",29000,2162,NA,29000,0,22420,2004,2,35,49,26
0,"3764 WORCHESTER DR","FLINT","MI",48503,43.0093039524749,-83.6376295527825,"TwoThousandTen",29000,2162,NA,29000,0,22420,1004,1,31,49,26
0,"852 WALDMAN AVE","FLINT","MI",48507,42.989564320408,-83.6895050574448,"TwoThousandTen",29000,2162,NA,29000,0,22420,2024,2,40,49,26
0,"806 SIMCOE AVE","FLINT","MI",48507,42.9944170490729,-83.688224394108,"TwoThousandTen",29000,2162,NA,29000,0,22420,1021,1,40,49,26
0,"326 BROWNING AVE","FLINT","MI",48507,42.9831764570725,-83.6705724795619,"TwoThousandTen",29000,2162,NA,29000,0,22420,1005,1,35,49,26
0,"1006 SOUTHLAWN AVE","FLINT","MI",48507,42.9876600435265,-83.6578676014217,"TwoThousandTen",29000,2162,NA,29000,0,22420,3000,3,35,49,26
0,"1309 EARLMOOR BLVD","FLINT","MI",48506,43.0294588509936,-83.6404016841116,"TwoThousandTen",29000,2162,NA,29000,0,22420,4013,4,27,49,26
0,"405 W WATER ST APT 105","FLINT","MI",48503,43.0166966123498,-83.696720357822,"TwoThousandTen",29000,2162,NA,29000,0,22420,2049,2,28,49,26
0,"2300 FLUSHING RD","FLINT","MI",48504,43.021199897213,-83.719751268708,"TwoThousandTen",29000,2162,NA,29000,0,22420,4007,4,13,49,26
0,"4118 DONNELLY ST","FLINT","MI",48504,43.0521246166064,-83.7162789464143,"TwoThousandTen",29000,2162,NA,29000,0,22420,2010,2,7,49,26
0,"1732 W HOBSON AVE","FLINT","MI",48504,43.0669157548721,-83.7263884595326,"TwoThousandTen",29000,2162,NA,29000,0,22420,1001,1,3,49,26
0,"5126 WOODHAVEN DR","FLINT","MI",48504,43.079053400593,-83.7441320628716,"TwoThousandTen",NA,870,NA,55980,0,22420,3006,3,105.04,49,26
0,"147 E HOME AVE","FLINT","MI",48505,43.067263831782,-83.7050650807983,"TwoThousandTen",29000,2162,NA,29000,0,22420,2005,2,4,49,26
0,"718 LOYOLA DR","FLINT","MI",48503,43.029243885787,-83.6925919875853,"TwoThousandTen",29000,2162,NA,29000,0,22420,1021,1,136,49,26
0,"5611 BALSAM LN","FLINT","MI",48505,43.062702,-83.692479,"TwoThousandTen",29000,2162,NA,29000,0,22420,2030,2,17,49,26
0,"314 E PULASKI AVE","FLINT","MI",48505,43.0601133133334,-83.7004867091002,"TwoThousandTen",29000,2162,NA,29000,0,22420,3003,3,6,49,26
0,"3225 LEITH ST","FLINT","MI",48506,43.0428780361235,-83.6473958185798,"TwoThousandTen",29000,2162,NA,29000,0,22420,2010,2,24,49,26
0,"3201 BUICK ST APT 41","FLINT","MI",48505,43.0446735961434,-83.6989410236506,"TwoThousandTen",29000,2162,NA,29000,0,22420,1004,1,11,49,26
0,"2601 OHIO AVE","FLINT","MI",48506,43.0304181971795,-83.657118088045,"TwoThousandTen",29000,2162,NA,29000,0,22420,5010,5,26,49,26
0,"3709 SHERRY DR","FLINT","MI",48506,43.0482409167757,-83.6391470853385,"TwoThousandTen",29000,2162,NA,29000,0,22420,3001,3,24,49,26
0,"1133 E PIERSON RD","FLINT","MI",48505,43.0613694425047,-83.6831295958198,"TwoThousandTen",29000,2162,NA,29000,0,22420,2054,2,17,49,26
0,"918 GLENBROOK CIR APT C","FLINT","MI",48503,43.0261018387074,-83.6890861307486,"TwoThousandTen",29000,2162,NA,29000,0,22420,1029,1,136,49,26
0,"1617 BROOKWOOD AVE","FLINT","MI",48503,43.0128266468572,-83.6684231859823,"TwoThousandTen",29000,2162,NA,29000,0,22420,3030,3,30,49,26
0,"4302 WESTERN RD LOT 48","FLINT","MI",48506,43.0528023766122,-83.6553649611573,"TwoThousandTen",29000,2162,NA,29000,0,22420,3028,3,19,49,26
0,"2822 PLAINFIELD AVE","FLINT","MI",48506,43.0584847377151,-83.6548804597932,"TwoThousandTen",29000,2162,NA,29000,0,22420,3020,3,19,49,26
0,"3301 BUICK ST APT 36","FLINT","MI",48505,43.0454355568702,-83.6989428561819,"TwoThousandTen",29000,2162,NA,29000,0,22420,1004,1,11,49,26
0,"6507 DUPONT ST","FLINT","MI",48505,43.0708158655208,-83.7140950855075,"TwoThousandTen",29000,2162,NA,29000,0,22420,3006,3,1,49,26
0,"3401 DAKOTA AVE","FLINT","MI",48506,43.0416926425529,-83.6442467221167,"TwoThousandTen",29000,2162,NA,29000,0,22420,2001,2,27,49,26
0,"2621 MARYLAND AVE","FLINT","MI",48506,43.040579190002,-83.6575048838952,"TwoThousandTen",29000,2162,NA,29000,0,22420,2023,2,23,49,26
0,"527 W MCCLELLAN ST","FLINT","MI",48505,43.0437943344356,-83.7112454410703,"TwoThousandTen",29000,2162,NA,29000,0,22420,2002,2,10,49,26
0,"3322 EMERSON ST","FLINT","MI",48504,43.0364503381705,-83.7326504976959,"TwoThousandTen",29000,2162,NA,29000,0,22420,2000,2,12,49,26
0,"3810 RISEDORPH AVE","FLINT","MI",48506,43.0384758414122,-83.6378425920064,"TwoThousandTen",29000,2162,NA,29000,0,22420,2011,2,27,49,26
0,"4302 WESTERN RD LOT 9","FLINT","MI",48506,43.0528023766122,-83.6553649611573,"TwoThousandTen",29000,2162,NA,29000,0,22420,3028,3,19,49,26
0,"5709 BALDWIN BLVD","FLINT","MI",48505,43.0648973860569,-83.7162775310071,"TwoThousandTen",29000,2162,NA,29000,0,22420,3002,3,3,49,26
0,"2106 E CARPENTER RD","FLINT","MI",48505,43.0760434586754,-83.6632350453622,"TwoThousandTen",29000,2162,NA,29000,0,22420,2016,2,18,49,26
0,"2614 WISCONSIN AVE","FLINT","MI",48506,43.0309705307706,-83.6570525534696,"TwoThousandTen",29000,2162,NA,29000,0,22420,5010,5,26,49,26
0,"1725 OHIO AVE","FLINT","MI",48506,43.0302243497744,-83.6672594451276,"TwoThousandTen",29000,2162,NA,29000,0,22420,3005,3,26,49,26
0,"3705 SUNRIDGE DR","FLINT","MI",48506,43.0482274680155,-83.6494163847183,"TwoThousandTen",29000,2162,NA,29000,0,22420,2002,2,24,49,26
0,"717 SPELLMAN DR","FLINT","MI",48503,43.0308630391068,-83.6923531548628,"TwoThousandTen",29000,2162,NA,29000,0,22420,1024,1,136,49,26
0,"3617 CHURCHILL AVE","FLINT","MI",48506,43.0339320529209,-83.6421257946751,"TwoThousandTen",29000,2162,NA,29000,0,22420,3016,3,27,49,26
0,"1318 W DARTMOUTH ST","FLINT","MI",48504,43.0422706379962,-83.7210508679974,"TwoThousandTen",29000,2162,NA,29000,0,22420,3013,3,9,49,26
0,"3536 PROVIDENCE ST","FLINT","MI",48503,43.004611070478,-83.6424341149134,"TwoThousandTen",29000,2162,NA,29000,0,22420,1018,1,31,49,26
0,"2306 ZIMMERMAN ST","FLINT","MI",48503,43.0062855211712,-83.7167389751552,"TwoThousandTen",29000,2162,NA,29000,0,22420,2017,2,37,49,26
0,"3809 DELAWARE AVE","FLINT","MI",48506,43.0400596481286,-83.6378108944421,"TwoThousandTen",29000,2162,NA,29000,0,22420,2004,2,27,49,26
0,"3423 EASTDALE DR","FLINT","MI",48506,43.0591528333085,-83.594294145909,"TwoThousandTen",NA,870,NA,31800,0,22420,2017,2,120.09,49,26
0,"1314 GARLAND ST","FLINT","MI",48503,43.0271688383481,-83.7015890194021,"TwoThousandTen",29000,2162,NA,29000,0,22420,2010,2,14,49,26
0,"3702 ALDON LN","FLINT","MI",48506,43.0481828086006,-83.6400070804741,"TwoThousandTen",29000,2162,NA,29000,0,22420,3001,3,24,49,26
0,"3226 THOM ST","FLINT","MI",48506,43.0434631283197,-83.6473281631939,"TwoThousandTen",29000,2162,NA,29000,0,22420,2010,2,24,49,26
0,"2314 BARTH ST","FLINT","MI",48504,43.0273218400798,-83.7189006819935,"TwoThousandTen",29000,2162,NA,29000,0,22420,4011,4,12,49,26
0,"1602 N BALLENGER HWY","FLINT","MI",48504,43.0308603250792,-83.7280031002173,"TwoThousandTen",29000,2162,NA,29000,0,22420,3005,3,12,49,26
0,"2013 HILLS ST","FLINT","MI",48503,43.0169759955593,-83.6636752622777,"TwoThousandTen",29000,2162,NA,29000,0,22420,3005,3,30,49,26
0,"704 VICTORIA AVE","FLINT","MI",48507,42.9937602104132,-83.6858331096388,"TwoThousandTen",29000,2162,NA,29000,0,22420,1019,1,40,49,26
0,"4450 ASHLAWN DR","FLINT","MI",48507,42.9614523589745,-83.7044381799212,"TwoThousandTen",NA,870,NA,29020,0,22420,5012,5,110.1,49,26
0,"4302 TOMMY ARMOUR DR","FLINT","MI",48506,43.0642911428939,-83.6232892211391,"TwoThousandTen",NA,870,NA,31800,0,22420,1012,1,120.06,49,26
0,"944 MARKHAM ST","FLINT","MI",48507,42.9822746248742,-83.6914688363013,"TwoThousandTen",29000,2162,NA,29000,0,22420,4017,4,40,49,26
0,"1259 NIAGARA ST","FLINT","MI",48503,43.0241036585866,-83.709052797029,"TwoThousandTen",29000,2162,NA,29000,0,22420,1008,1,15,49,26
0,"1055 S BALLENGER HWY","FLINT","MI",48532,43.0031051563785,-83.7332482065901,"TwoThousandTen",29000,2162,NA,29000,0,22420,2009,2,36,49,26
0,"3601 BALFOUR CT","FLINT","MI",48507,42.9895008779767,-83.7087075610919,"TwoThousandTen",29000,2162,NA,29000,0,22420,2039,2,135,49,26
0,"2901 EPSILON TRL","FLINT","MI",48506,43.0593003045564,-83.6535112043908,"TwoThousandTen",29000,2162,NA,29000,0,22420,3024,3,19,49,26
0,"2809 FIELDING ST","FLINT","MI",48503,43.0045805965195,-83.7251361168412,"TwoThousandTen",29000,2162,NA,29000,0,22420,2012,2,36,49,26
0,"1928 BECKER ST APT A","FLINT","MI",48503,43.0052072448856,-83.7113757002063,"TwoThousandTen",29000,2162,NA,29000,0,22420,1000,1,37,49,26
0,"4435 E CARPENTER RD","FLINT","MI",48506,43.0841402944857,-83.6232098324097,"TwoThousandTen",NA,870,NA,31800,0,22420,1011,1,120.07,49,26
0,"2525 BROWN ST","FLINT","MI",48503,43.002318611332,-83.7187754248028,"TwoThousandTen",29000,2162,NA,29000,0,22420,4005,4,37,49,26
0,"3706 ALDON LN","FLINT","MI",48506,43.0482160729601,-83.6400081003479,"TwoThousandTen",29000,2162,NA,29000,0,22420,3001,3,24,49,26
0,"912 E KEARSLEY ST","FLINT","MI",48503,43.0212613878008,-83.6815918126068,"TwoThousandTen",29000,2162,NA,29000,0,22420,1010,1,29,49,26
0,"5708 WESTERN RD","FLINT","MI",48506,43.0656806077838,-83.6552156780862,"TwoThousandTen",29000,2162,NA,29000,0,22420,1003,1,19,49,26
0,"3706 SHERRY DR","FLINT","MI",48506,43.048225920715,-83.6389668922085,"TwoThousandTen",29000,2162,NA,29000,0,22420,3002,3,24,49,26
0,"1009 KENSINGTON AVE","FLINT","MI",48503,43.017129493342,-83.6662314509476,"TwoThousandTen",29000,2162,NA,29000,0,22420,3014,3,30,49,26
0,"214 W BELVIDERE AVE","FLINT","MI",48503,42.9951949295954,-83.6783504393793,"TwoThousandTen",29000,2162,NA,29000,0,22420,2021,2,38,49,26
0,"4071 MITCHELL DR","FLINT","MI",48506,43.0590385396637,-83.6342873944012,"TwoThousandTen",NA,870,NA,31800,0,22420,2001,2,120.06,49,26
0,"1822 UTAH AVE","FLINT","MI",48506,43.0468579473178,-83.6663720800693,"TwoThousandTen",29000,2162,NA,29000,0,22420,1006,1,22,49,26
0,"2927 MEISNER AVE","FLINT","MI",48506,43.0493997713464,-83.6535437550572,"TwoThousandTen",29000,2162,NA,29000,0,22420,1011,1,24,49,26
0,"426 W FLINT PARK BLVD","FLINT","MI",48505,43.0559955467233,-83.7088652473437,"TwoThousandTen",29000,2162,NA,29000,0,22420,2006,2,6,49,26
0,"2609 KENTUCKY AVE","FLINT","MI",48506,43.0282089026112,-83.6572754636174,"TwoThousandTen",29000,2162,NA,29000,0,22420,5018,5,26,49,26
0,"2802 WINDCLIFF TRL","FLINT","MI",48506,43.051354,-83.637617,"TwoThousandTen",NA,870,NA,31800,0,22420,3000,3,120.06,49,26
0,"6821 FLEETWOOD DR","FLINT","MI",48504,43.0727214757596,-83.7265954318168,"TwoThousandTen",29000,2162,NA,29000,0,22420,1000,1,1,49,26
0,"2310 CRESTBROOK LN","FLINT","MI",48507,42.9839359562507,-83.7069271009744,"TwoThousandTen",29000,2162,NA,29000,0,22420,5006,5,135,49,26
0,"5928 WINDCLIFF TRL","FLINT","MI",48506,43.0675608479221,-83.6528597027127,"TwoThousandTen",29000,2162,NA,29000,0,22420,1003,1,19,49,26
0,"3809 TWILIGHT DR","FLINT","MI",48506,43.0486942752011,-83.6484878438554,"TwoThousandTen",29000,2162,NA,29000,0,22420,2004,2,24,49,26
0,"800 E COURT ST APT 324","FLINT","MI",48503,43.0164104938134,-83.6791073156939,"TwoThousandTen",29000,2162,NA,29000,0,22420,2005,2,29,49,26
0,"2952 CARR ST","FLINT","MI",48506,43.0526637059883,-83.6528307644196,"TwoThousandTen",29000,2162,NA,29000,0,22420,3033,3,19,49,26
0,"4229 PENGELLY RD","FLINT","MI",48507,42.9848079211726,-83.6698149785826,"TwoThousandTen",29000,2162,NA,29000,0,22420,1000,1,35,49,26
0,"1617 ILLINOIS AVE","FLINT","MI",48506,43.0316764900404,-83.6697781056783,"TwoThousandTen",29000,2162,NA,29000,0,22420,2016,2,26,49,26
0,"1001 N FRANKLIN AVE","FLINT","MI",48506,43.0265077203851,-83.6648860784061,"TwoThousandTen",29000,2162,NA,29000,0,22420,3014,3,26,49,26
0,"3175 RICHFIELD RD","FLINT","MI",48506,43.0509549937505,-83.6486268417539,"TwoThousandTen",NA,870,NA,31800,0,22420,3007,3,120.06,49,26
0,"1132 WOODSIDE DR","FLINT","MI",48503,43.0153563260034,-83.6706193752212,"TwoThousandTen",29000,2162,NA,29000,0,22420,3023,3,30,49,26
0,"1001 E ATHERTON RD","FLINT","MI",48507,42.9892070957439,-83.657940719449,"TwoThousandTen",29000,2162,NA,29000,0,22420,2002,2,33,49,26
0,"3410 FENTON RD","FLINT","MI",48507,42.9915741805791,-83.6931287686298,"TwoThousandTen",29000,2162,NA,29000,0,22420,2028,2,135,49,26
0,"701 WELCH BLVD","FLINT","MI",48504,43.0305249947641,-83.7145965297592,"TwoThousandTen",29000,2162,NA,29000,0,22420,1002,1,12,49,26
0,"1718 ROSELAWN DR","FLINT","MI",48504,43.0594845806288,-83.7255551805556,"TwoThousandTen",29000,2162,NA,29000,0,22420,2001,2,5,49,26
0,"2502 NEBRASKA AVE","FLINT","MI",48506,43.0272684341674,-83.6577625761741,"TwoThousandTen",29000,2162,NA,29000,0,22420,5026,5,26,49,26
0,"3806 SUNRIDGE DR","FLINT","MI",48506,43.0491036582376,-83.6493554338327,"TwoThousandTen",29000,2162,NA,29000,0,22420,2004,2,24,49,26
0,"3007 HAMPSTEAD DR","FLINT","MI",48506,43.0674947922152,-83.6519303075315,"TwoThousandTen",29000,2162,NA,29000,0,22420,1002,1,19,49,26
0,"4107 MITCHELL DR","FLINT","MI",48506,43.0576786652569,-83.6333189893986,"TwoThousandTen",NA,870,NA,31800,0,22420,2001,2,120.06,49,26
0,"G3094 N CENTER RD","FLINT","MI",48506,43.051354,-83.637617,"TwoThousandTen",NA,870,NA,31800,0,22420,3000,3,120.06,49,26
0,"3453 RANGELEY ST APT 8","FLINT","MI",48503,43.0181498433862,-83.6402706990176,"TwoThousandTen",29000,2162,NA,29000,0,22420,2019,2,31,49,26
0,"5001 ALPHA WAY","FLINT","MI",48506,43.0609325041689,-83.6589402953556,"TwoThousandTen",29000,2162,NA,29000,0,22420,2000,2,19,49,26
0,"6075 N GENESEE RD","FLINT","MI",48506,43.0935773281868,-83.6172086058733,"TwoThousandTen",NA,870,NA,31800,0,22420,1003,1,120.07,49,26
0,"1055 RIVER FOREST DR","FLINT","MI",48532,43.0184413585818,-83.7463796214421,"TwoThousandTen",NA,870,NA,29020,0,22420,1003,1,109.11,49,26
0,"4008 OGEMA AVE","FLINT","MI",48507,42.9873726946765,-83.6611621497585,"TwoThousandTen",29000,2162,NA,29000,0,22420,2010,2,35,49,26
0,"3801 KENT ST","FLINT","MI",48503,43.0079043564392,-83.6364307270537,"TwoThousandTen",29000,2162,NA,29000,0,22420,1003,1,31,49,26
0,"4460 MEADOWBROOK DR","FLINT","MI",48506,43.05762296432,-83.6206357533018,"TwoThousandTen",NA,870,NA,31800,0,22420,1017,1,120.06,49,26
0,"3413 HUGGINS AVE","FLINT","MI",48506,43.0458447620518,-83.6418050623683,"TwoThousandTen",29000,2162,NA,29000,0,22420,3003,3,24,49,26
0,"2722 BEGOLE ST","FLINT","MI",48504,43.0318370025479,-83.7230269003735,"TwoThousandTen",29000,2162,NA,29000,0,22420,3013,3,12,49,26
0,"1710 INDIANA AVE","FLINT","MI",48506,43.0322548249787,-83.6675882462503,"TwoThousandTen",29000,2162,NA,29000,0,22420,3002,3,26,49,26
0,"1505 S FRANKLIN AVE","FLINT","MI",48503,43.0132124138449,-83.6647099163311,"TwoThousandTen",29000,2162,NA,29000,0,22420,3033,3,30,49,26
0,"1502 ILLINOIS AVE","FLINT","MI",48506,43.0314382692719,-83.6724190360171,"TwoThousandTen",29000,2162,NA,29000,0,22420,2010,2,26,49,26
0,"3829 CRAIG DR","FLINT","MI",48506,43.0447976768185,-83.6377806918085,"TwoThousandTen",29000,2162,NA,29000,0,22420,3006,3,24,49,26
0,"2605 TORRANCE AVE","FLINT","MI",48506,43.0388420030705,-83.656666245068,"TwoThousandTen",29000,2162,NA,29000,0,22420,3001,3,23,49,26
0,"508 SHEFFIELD AVE","FLINT","MI",48503,43.0102920110224,-83.7265172398351,"TwoThousandTen",29000,2162,NA,29000,0,22420,5007,5,16,49,26
0,"2405 MARYLAND AVE","FLINT","MI",48506,43.0405780598729,-83.6603360301192,"TwoThousandTen",29000,2162,NA,29000,0,22420,2022,2,23,49,26
0,"5412 DUPONT ST","FLINT","MI",48505,43.0627062898785,-83.7139107537341,"TwoThousandTen",29000,2162,NA,29000,0,22420,1010,1,4,49,26
0,"132 W JAMIESON ST","FLINT","MI",48505,43.0449005617603,-83.7051539222471,"TwoThousandTen",29000,2162,NA,29000,0,22420,1005,1,10,49,26
0,"1919 COLON ST","FLINT","MI",48506,43.0492434734206,-83.6649808547557,"TwoThousandTen",29000,2162,NA,29000,0,22420,2003,2,23,49,26
0,"3714 GRATIOT AVE","FLINT","MI",48503,43.0107604071869,-83.7324822050484,"TwoThousandTen",29000,2162,NA,29000,0,22420,4014,4,16,49,26
0,"4034 MILBOURNE AVE","FLINT","MI",48504,43.0509628994404,-83.717274812777,"TwoThousandTen",29000,2162,NA,29000,0,22420,2009,2,7,49,26
0,"3730 WHITTIER AVE","FLINT","MI",48506,43.0369931597053,-83.6396961500878,"TwoThousandTen",29000,2162,NA,29000,0,22420,3000,3,27,49,26
0,"1572 DUPONT ST","FLINT","MI",48504,43.0284957066869,-83.7128783555309,"TwoThousandTen",29000,2162,NA,29000,0,22420,1004,1,14,49,26
0,"2802 SLOAN ST","FLINT","MI",48504,43.0249987257419,-83.7293158839363,"TwoThousandTen",29000,2162,NA,29000,0,22420,2010,2,13,49,26
0,"2018 WOOD LN","FLINT","MI",48503,43.0048095462583,-83.6432212083039,"TwoThousandTen",29000,2162,NA,29000,0,22420,1012,1,31,49,26
0,"422 W DEWEY ST","FLINT","MI",48505,43.045589454703,-83.7098021700067,"TwoThousandTen",29000,2162,NA,29000,0,22420,1001,1,10,49,26
0,"1531 WALDMAN AVE","FLINT","MI",48507,42.9889670017881,-83.7006633948419,"TwoThousandTen",29000,2162,NA,29000,0,22420,1005,1,135,49,26
0,"3743 KENT ST","FLINT","MI",48503,43.0078733640728,-83.6380246201835,"TwoThousandTen",29000,2162,NA,29000,0,22420,1003,1,31,49,26
0,"2909 CHEROKEE AVE","FLINT","MI",48507,42.9959580309792,-83.6580572747226,"TwoThousandTen",29000,2162,NA,29000,0,22420,1022,1,33,49,26
0,"713 LELAND ST","FLINT","MI",48507,42.9872298204445,-83.6859646953483,"TwoThousandTen",29000,2162,NA,29000,0,22420,3010,3,40,49,26
0,"121 W JAMIESON ST","FLINT","MI",48505,43.0447247950236,-83.7049496305167,"TwoThousandTen",29000,2162,NA,29000,0,22420,1006,1,10,49,26
0,"1939 PENBROOK LN","FLINT","MI",48507,42.9873177003911,-83.7112609344311,"TwoThousandTen",29000,2162,NA,29000,0,22420,5008,5,135,49,26
0,"2710 DUPONT ST","FLINT","MI",48504,43.0408159362382,-83.7131918266457,"TwoThousandTen",29000,2162,NA,29000,0,22420,2002,2,10,49,26
0,"452 S SAGINAW ST APT 403","FLINT","MI",48502,43.0162618891796,-83.6910706016519,"TwoThousandTen",29000,2162,NA,29000,0,22420,2070,2,28,49,26
0,"1305 STOCKER AVE","FLINT","MI",48503,43.0007688339517,-83.7291494869006,"TwoThousandTen",29000,2162,NA,29000,0,22420,4009,4,36,49,26
0,"3314 DEARBORN AVE","FLINT","MI",48507,42.9929758549622,-83.6601858245569,"TwoThousandTen",29000,2162,NA,29000,0,22420,2005,2,33,49,26
0,"3508 HUGGINS AVE","FLINT","MI",48506,43.0465062358789,-83.6416551558657,"TwoThousandTen",29000,2162,NA,29000,0,22420,3006,3,24,49,26
0,"3748 DAKOTA AVE","FLINT","MI",48506,43.0416341164188,-83.6392508890466,"TwoThousandTen",29000,2162,NA,29000,0,22420,2003,2,27,49,26
0,"519 CHALMERS ST","FLINT","MI",48503,43.0218450493923,-83.6570593442424,"TwoThousandTen",29000,2162,NA,29000,0,22420,2011,2,30,49,26
0,"1039 VICTORIA AVE","FLINT","MI",48507,42.9930471787992,-83.6936750881182,"TwoThousandTen",29000,2162,NA,29000,0,22420,2026,2,135,49,26
0,"3728 WORCHESTER DR","FLINT","MI",48503,43.0092704979295,-83.6389764618734,"TwoThousandTen",29000,2162,NA,29000,0,22420,1004,1,31,49,26
0,"2006 BARKS ST","FLINT","MI",48503,43.0057438344593,-83.660775979751,"TwoThousandTen",29000,2162,NA,29000,0,22420,3018,3,32,49,26
0,"624 W STEWART AVE","FLINT","MI",48505,43.0541479763068,-83.7120832550482,"TwoThousandTen",29000,2162,NA,29000,0,22420,1008,1,6,49,26
0,"705 CRAWFORD ST","FLINT","MI",48507,42.9864878204007,-83.68574521492,"TwoThousandTen",29000,2162,NA,29000,0,22420,3015,3,40,49,26
0,"723 LOCHHEAD AVE","FLINT","MI",48507,42.9851600679146,-83.6607398356944,"TwoThousandTen",29000,2162,NA,29000,0,22420,3001,3,35,49,26
0,"3809 PARK FOREST DR","FLINT","MI",48507,42.9876339796266,-83.7113081673643,"TwoThousandTen",29000,2162,NA,29000,0,22420,5008,5,135,49,26
0,"626 LETA AVE","FLINT","MI",48507,42.9865437800567,-83.6625540397334,"TwoThousandTen",29000,2162,NA,29000,0,22420,2011,2,35,49,26
0,"1501 WALDMAN AVE","FLINT","MI",48507,42.9889686071393,-83.7002034617314,"TwoThousandTen",29000,2162,NA,29000,0,22420,1005,1,135,49,26
0,"3114 IROQUOIS AVE","FLINT","MI",48505,43.0440119457477,-83.7108322405035,"TwoThousandTen",29000,2162,NA,29000,0,22420,1007,1,10,49,26
0,"1311 W PATERSON ST","FLINT","MI",48504,43.0341934139182,-83.7205614268378,"TwoThousandTen",29000,2162,NA,29000,0,22420,4012,4,9,49,26
0,"218 W LINSEY BLVD","FLINT","MI",48503,42.9980326554956,-83.679593597938,"TwoThousandTen",29000,2162,NA,29000,0,22420,2015,2,38,49,26
0,"2029 SEYMOUR AVE","FLINT","MI",48503,43.0052242392378,-83.6617051495878,"TwoThousandTen",29000,2162,NA,29000,0,22420,3018,3,32,49,26
0,"14 BIRCH CREST DR","FLINT","MI",48504,43.0730570853512,-83.7588553150055,"TwoThousandTen",NA,870,NA,55980,0,22420,2014,2,105.01,49,26
0,"1601 ARLINGTON AVE","FLINT","MI",48506,43.0309866416443,-83.6631740222602,"TwoThousandTen",29000,2162,NA,29000,0,22420,4004,4,26,49,26
0,"212 W PATERSON ST","FLINT","MI",48503,43.0333213544525,-83.7061889092168,"TwoThousandTen",29000,2162,NA,29000,0,22420,4011,4,10,49,26
0,"221 E MOORE ST","FLINT","MI",48505,43.0534223042677,-83.7016567996121,"TwoThousandTen",29000,2162,NA,29000,0,22420,2002,2,8,49,26
0,"1830 WHITTLESEY ST","FLINT","MI",48503,43.0088581818596,-83.6598009435372,"TwoThousandTen",29000,2162,NA,29000,0,22420,3010,3,32,49,26
0,"815 EAST ST APT 3","FLINT","MI",48503,43.012315,-83.69206,"TwoThousandTen",29000,2162,NA,29000,0,22420,2091,2,28,49,26
0,"5481 SUGAR BUSH LN","FLINT","MI",48532,43.0218706113685,-83.7910750395983,"TwoThousandTen",NA,870,NA,29020,0,22420,4002,4,108.1,49,26
0,"2301 CANNIFF ST","FLINT","MI",48504,43.0552820304348,-83.7308146095276,"TwoThousandTen",29000,2162,NA,29000,0,22420,1007,1,5,49,26
0,"2841 HILLCREST AVE","FLINT","MI",48507,42.9969040147535,-83.6619544418837,"TwoThousandTen",29000,2162,NA,29000,0,22420,1019,1,33,49,26
0,"313 LETA AVE","FLINT","MI",48507,42.9866492574,-83.6695999403605,"TwoThousandTen",29000,2162,NA,29000,0,22420,2006,2,35,49,26
0,"634 W HOME AVE","FLINT","MI",48505,43.0672022265583,-83.7130296936104,"TwoThousandTen",29000,2162,NA,29000,0,22420,1001,1,4,49,26
0,"1035 CRAWFORD ST","FLINT","MI",48507,42.9859789049183,-83.6934561549661,"TwoThousandTen",29000,2162,NA,29000,0,22420,3008,3,135,49,26
0,"1299 W CASS AVE","FLINT","MI",48505,43.081380937447,-83.7054178671054,"TwoThousandTen",6820,2162,NA,55980,0,22420,4008,4,103.04,49,26
0,"1610 NEW YORK AVE","FLINT","MI",48506,43.0388823222927,-83.6702024489833,"TwoThousandTen",29000,2162,NA,29000,0,22420,3010,3,22,49,26
0,"3617 N TERM ST","FLINT","MI",48506,43.0472828305535,-83.6446389301761,"TwoThousandTen",29000,2162,NA,29000,0,22420,3004,3,24,49,26
0,"3525 CHAMBERS ST","FLINT","MI",48507,42.9914320332918,-83.6477463712519,"TwoThousandTen",29000,2162,NA,29000,0,22420,2020,2,34,49,26
0,"2334 KELLAR AVE","FLINT","MI",48504,43.0367498014828,-83.7287340427605,"TwoThousandTen",29000,2162,NA,29000,0,22420,4006,4,9,49,26
0,"1647 ILLINOIS AVE","FLINT","MI",48506,43.0316937627677,-83.6690399238601,"TwoThousandTen",29000,2162,NA,29000,0,22420,2016,2,26,49,26
0,"706 VERMILYA AVE","FLINT","MI",48507,42.9917533279922,-83.6860962295853,"TwoThousandTen",29000,2162,NA,29000,0,22420,2012,2,40,49,26
0,"1105 NEUBERT AVE","FLINT","MI",48507,42.9918641594349,-83.6947316625271,"TwoThousandTen",29000,2162,NA,29000,0,22420,2028,2,135,49,26
0,"2004 BECKER ST","FLINT","MI",48503,43.005189286727,-83.7123871974623,"TwoThousandTen",29000,2162,NA,29000,0,22420,1001,1,37,49,26
0,"3401 COMANCHE AVE","FLINT","MI",48507,42.9923506711893,-83.6589361845594,"TwoThousandTen",29000,2162,NA,29000,0,22420,2003,2,33,49,26
0,"616 WALDMAN AVE","FLINT","MI",48507,42.9896550050274,-83.6836821510158,"TwoThousandTen",29000,2162,NA,29000,0,22420,2026,2,40,49,26
0,"4264 SUGAR MAPLE RUN","FLINT","MI",48506,43.051354,-83.637617,"TwoThousandTen",NA,870,NA,31800,0,22420,3000,3,120.06,49,26
0,"4500 S SAGINAW ST","FLINT","MI",48507,43.0560242343657,-83.6936842160595,"TwoThousandTen",29000,2162,NA,29000,0,22420,1038,1,20,49,26
0,"2919 MEISNER AVE","FLINT","MI",48506,43.049397427912,-83.6537629873804,"TwoThousandTen",29000,2162,NA,29000,0,22420,1011,1,24,49,26
0,"2919 MEISNER AVE","FLINT","MI",48506,43.049397427912,-83.6537629873804,"TwoThousandTen",29000,2162,NA,29000,0,22420,1011,1,24,49,26
0,"3009 OKLAHOMA AVE","FLINT","MI",48506,43.0420946625235,-83.6521986634726,"TwoThousandTen",29000,2162,NA,29000,0,22420,1001,1,27,49,26
0,"2001 N CENTER RD APT 218","FLINT","MI",48506,43.0342397218115,-83.6354915412456,"TwoThousandTen",29000,2162,NA,29000,0,22420,3006,3,27,49,26
0,"1398 HAMMERBERG CT","FLINT","MI",48507,42.9746571943438,-83.7046138935602,"TwoThousandTen",NA,870,NA,29020,0,22420,3020,3,110.1,49,26
0,"2021 CHELAN ST","FLINT","MI",48503,43.0055028951713,-83.6583211579263,"TwoThousandTen",29000,2162,NA,29000,0,22420,3016,3,32,49,26
0,"1820 KENT ST","FLINT","MI",48503,43.007335278499,-83.6605337685001,"TwoThousandTen",29000,2162,NA,29000,0,22420,3013,3,32,49,26
0,"3519 DAKOTA AVE","FLINT","MI",48506,43.0417145272647,-83.6428076544475,"TwoThousandTen",29000,2162,NA,29000,0,22420,2001,2,27,49,26
0,"1522 BERRYWOOD LN","FLINT","MI",48507,42.9872032352685,-83.6999386655446,"TwoThousandTen",29000,2162,NA,29000,0,22420,4000,4,135,49,26
0,"3726 RICHFIELD RD","FLINT","MI",48506,43.0509078217099,-83.6402381881307,"TwoThousandTen",29000,2162,NA,29000,0,22420,3000,3,24,49,26
0,"1826 PENBROOK LN","FLINT","MI",48507,42.970942,-83.703232,"TwoThousandTen",NA,870,NA,29020,0,22420,4001,4,110.1,49,26
0,"4036 MANN HALL AVE","FLINT","MI",48532,43.0054441347326,-83.7400646642132,"TwoThousandTen",29000,2162,NA,29000,0,22420,1005,1,36,49,26
0,"2820 CLEMENT ST","FLINT","MI",48504,43.0303089053778,-83.7258614332327,"TwoThousandTen",29000,2162,NA,29000,0,22420,3005,3,12,49,26
0,"5013 ALPHA WAY","FLINT","MI",48506,43.0609552185302,-83.6588134604144,"TwoThousandTen",29000,2162,NA,29000,0,22420,2000,2,19,49,26
0,"2409 OKLAHOMA AVE","FLINT","MI",48506,43.0421285542375,-83.660270316012,"TwoThousandTen",29000,2162,NA,29000,0,22420,2014,2,23,49,26
0,"3601 LEITH ST","FLINT","MI",48506,43.0429516626039,-83.6418061682528,"TwoThousandTen",29000,2162,NA,29000,0,22420,3007,3,24,49,26
0,"3127 COLORADO AVE","FLINT","MI",48506,43.0450373962358,-83.6498609701519,"TwoThousandTen",29000,2162,NA,29000,0,22420,2007,2,24,49,26
0,"309 W FLINT PARK BLVD","FLINT","MI",48505,43.0558326838531,-83.7073758980197,"TwoThousandTen",29000,2162,NA,29000,0,22420,2007,2,6,49,26
0,"3322 HERRICK ST","FLINT","MI",48503,42.9984204549355,-83.730340377523,"TwoThousandTen",29000,2162,NA,29000,0,22420,4017,4,36,49,26
0,"4020 N DORT HWY","FLINT","MI",48506,43.0514845871915,-83.6637563970169,"TwoThousandTen",29000,2162,NA,29000,0,22420,3031,3,19,49,26
0,"3842 MARMION AVE","FLINT","MI",48506,43.0323401817327,-83.6373349307305,"TwoThousandTen",29000,2162,NA,29000,0,22420,4023,4,27,49,26
0,"1236 SOMERSET LN","FLINT","MI",48503,43.0152306171414,-83.6369300141993,"TwoThousandTen",29000,2162,NA,29000,0,22420,2031,2,31,49,26
0,"3221 N DORT HWY","FLINT","MI",48506,43.0436629749417,-83.6574006881542,"TwoThousandTen",29000,2162,NA,29000,0,22420,2002,2,23,49,26
0,"3405 BENNETT AVE","FLINT","MI",48506,43.0360344956426,-83.6441026516553,"TwoThousandTen",29000,2162,NA,29000,0,22420,3002,3,27,49,26
0,"3712 TWILIGHT DR","FLINT","MI",48506,43.0480059282396,-83.6482834593838,"TwoThousandTen",29000,2162,NA,29000,0,22420,2002,2,24,49,26
0,"2420 PLAINFIELD AVE","FLINT","MI",48506,43.0585737783559,-83.6599042258846,"TwoThousandTen",29000,2162,NA,29000,0,22420,2000,2,19,49,26
0,"3914 SENECA ST","FLINT","MI",48504,43.0498050859372,-83.7306002636419,"TwoThousandTen",29000,2162,NA,29000,0,22420,4006,4,7,49,26
0,"710 AVON ST","FLINT","MI",48503,43.0181430349862,-83.6791871111014,"TwoThousandTen",29000,2162,NA,29000,0,22420,1008,1,29,49,26
0,"363 E PULASKI AVE","FLINT","MI",48505,43.0602915866004,-83.6995778503195,"TwoThousandTen",29000,2162,NA,29000,0,22420,4000,4,6,49,26
0,"3807 LIPPINCOTT BLVD APT 6","FLINT","MI",48507,43.0041951066357,-83.6368896895954,"TwoThousandTen",29000,2162,NA,29000,0,22420,1017,1,31,49,26
0,"1547 E ATHERTON RD","FLINT","MI",48507,42.9893139667345,-83.6496927359571,"TwoThousandTen",29000,2162,NA,29000,0,22420,2005,2,34,49,26
0,"3701 PENBROOK LN APT 12","FLINT","MI",48507,42.9898214042164,-83.7112372206606,"TwoThousandTen",29000,2162,NA,29000,0,22420,2041,2,135,49,26
0,"3401 DEARBORN AVE","FLINT","MI",48507,42.9964430208032,-83.6607164470872,"TwoThousandTen",29000,2162,NA,29000,0,22420,1019,1,33,49,26
0,"1606 LOYOLA DR","FLINT","MI",48503,43.0312984820139,-83.6902559501588,"TwoThousandTen",29000,2162,NA,29000,0,22420,1021,1,136,49,26
0,"3119 COLORADO AVE","FLINT","MI",48506,43.0450348635725,-83.6500629802021,"TwoThousandTen",29000,2162,NA,29000,0,22420,2007,2,24,49,26
0,"1011 SOUTHLAWN AVE","FLINT","MI",48507,42.9878411750831,-83.6578293551549,"TwoThousandTen",29000,2162,NA,29000,0,22420,3004,3,35,49,26
0,"3715 LORRAINE AVE","FLINT","MI",48506,43.0303133192719,-83.6398449677849,"TwoThousandTen",29000,2162,NA,29000,0,22420,4026,4,27,49,26
0,"2927 NATHAN AVE","FLINT","MI",48506,43.0501006494769,-83.653551484745,"TwoThousandTen",29000,2162,NA,29000,0,22420,1001,1,24,49,26
0,"5016 DELTA DR","FLINT","MI",48506,43.0602348123304,-83.6517825529459,"TwoThousandTen",29000,2162,NA,29000,0,22420,3022,3,19,49,26
0,"3714 COMANCHE AVE","FLINT","MI",48507,42.9898426251166,-83.659042437846,"TwoThousandTen",29000,2162,NA,29000,0,22420,2007,2,33,49,26
0,"755 E PASADENA AVE","FLINT","MI",48505,43.0470048064267,-83.6919824231704,"TwoThousandTen",29000,2162,NA,29000,0,22420,2015,2,20,49,26
0,"1325 LEISURE DR","FLINT","MI",48507,42.9503934462897,-83.698822655567,"TwoThousandTen",NA,870,NA,56160,0,22420,2010,2,129.05,49,26
0,"2624 CHICAGO BLVD","FLINT","MI",48503,43.0003547130036,-83.7202251481171,"TwoThousandTen",29000,2162,NA,29000,0,22420,4013,4,37,49,26
0,"2121 DWIGHT AVE","FLINT","MI",48503,43.0031070472212,-83.6717283000791,"TwoThousandTen",29000,2162,NA,29000,0,22420,4011,4,32,49,26
0,"2737 SWAYZE ST","FLINT","MI",48503,43.0018329178848,-83.7235158917486,"TwoThousandTen",29000,2162,NA,29000,0,22420,4014,4,36,49,26
0,"3414 DEARBORN AVE","FLINT","MI",48507,42.9922273599789,-83.6601640854264,"TwoThousandTen",29000,2162,NA,29000,0,22420,2005,2,33,49,26
0,"2030 WOOD LN","FLINT","MI",48503,43.0047037684785,-83.6432185416372,"TwoThousandTen",29000,2162,NA,29000,0,22420,1012,1,31,49,26
0,"3822 WESTERN RD","FLINT","MI",48506,43.0487110755392,-83.6552703811439,"TwoThousandTen",29000,2162,NA,29000,0,22420,1002,1,24,49,26
0,"2808 WINDRUSH PASS","FLINT","MI",48506,43.0642272081304,-83.655458968302,"TwoThousandTen",29000,2162,NA,29000,0,22420,1003,1,19,49,26
0,"652 INGLESIDE AVE","FLINT","MI",48507,42.9838368891093,-83.6843333288609,"TwoThousandTen",29000,2162,NA,29000,0,22420,4008,4,40,49,26
0,"2100 CADILLAC ST","FLINT","MI",48504,43.0188198839207,-83.7179960490706,"TwoThousandTen",29000,2162,NA,29000,0,22420,2007,2,16,49,26
0,"1402 CLANCY AVE","FLINT","MI",48503,43.0000767456195,-83.7249456093419,"TwoThousandTen",29000,2162,NA,29000,0,22420,4012,4,36,49,26
0,"3129 MALLERY ST","FLINT","MI",48504,43.0336143999692,-83.7317865072518,"TwoThousandTen",29000,2162,NA,29000,0,22420,2016,2,12,49,26
0,"4625 MILTON DR","FLINT","MI",48507,42.9846223116917,-83.6712524667332,"TwoThousandTen",29000,2162,NA,29000,0,22420,1006,1,35,49,26
0,"3347 CHEYENNE AVE","FLINT","MI",48529,42.9800608316223,-83.6553222389035,"TwoThousandTen",12060,2162,NA,12060,0,22420,1001,1,113.02,49,26
0,"1510 GREENBROOK LN","FLINT","MI",48507,42.9818108314284,-83.6991815896241,"TwoThousandTen",29000,2162,NA,29000,0,22420,5010,5,135,49,26
0,"501 GREENFIELD AVE","FLINT","MI",48503,43.0220406484647,-83.6581088188466,"TwoThousandTen",29000,2162,NA,29000,0,22420,2015,2,30,49,26
0,"2817 STEVENSON ST","FLINT","MI",48504,43.0268423848714,-83.7280708740297,"TwoThousandTen",29000,2162,NA,29000,0,22420,2006,2,13,49,26
0,"854 INGLESIDE AVE","FLINT","MI",48507,42.9837459196763,-83.68929291994,"TwoThousandTen",29000,2162,NA,29000,0,22420,4010,4,40,49,26
0,"910 DELL AVE","FLINT","MI",48507,42.9842384561313,-83.6586039418835,"TwoThousandTen",29000,2162,NA,29000,0,22420,3008,3,35,49,26
0,"3209 YALE ST","FLINT","MI",48503,42.9952077679974,-83.7280766648275,"TwoThousandTen",29000,2162,NA,29000,0,22420,5010,5,36,49,26
0,"6606 BELLTREE LN","FLINT","MI",48504,43.0706743164241,-83.7244730532955,"TwoThousandTen",29000,2162,NA,29000,0,22420,1012,1,1,49,26
0,"700 E COURT ST APT 304","FLINT","MI",48503,43.0159463931824,-83.6801186085196,"TwoThousandTen",29000,2162,NA,29000,0,22420,2006,2,29,49,26
0,"209 W LORADO AVE","FLINT","MI",48505,43.0707818090965,-83.7072493579299,"TwoThousandTen",29000,2162,NA,29000,0,22420,3005,3,2,49,26
0,"541 BURROUGHS AVE","FLINT","MI",48507,42.9874937789393,-83.6645681531798,"TwoThousandTen",29000,2162,NA,29000,0,22420,2007,2,35,49,26
0,"1212 WOODLAWN PARK DR","FLINT","MI",48503,43.0151514229305,-83.6717945929556,"TwoThousandTen",29000,2162,NA,29000,0,22420,3022,3,30,49,26
0,"1111 S GRAND TRAVERSE ST APT 1","FLINT","MI",48502,43.0081250891976,-83.6891968742683,"TwoThousandTen",29000,2162,NA,29000,0,22420,1006,1,28,49,26
0,"1318 BARBARA DR","FLINT","MI",48505,43.0685837741442,-83.7206870685604,"TwoThousandTen",29000,2162,NA,29000,0,22420,2009,2,1,49,26
0,"6621 DUPONT ST","FLINT","MI",48505,43.0722972825058,-83.7141136542953,"TwoThousandTen",29000,2162,NA,29000,0,22420,3006,3,1,49,26
0,"1616 CALUMET ST","FLINT","MI",48503,43.0160161568078,-83.6684295691105,"TwoThousandTen",29000,2162,NA,29000,0,22420,3025,3,30,49,26
0,"613 E AUSTIN AVE","FLINT","MI",48505,43.0695869212258,-83.6961421652061,"TwoThousandTen",29000,2162,NA,29000,0,22420,4010,4,2,49,26
0,"2618 NORBERT ST","FLINT","MI",48504,43.0193624641547,-83.7292232846887,"TwoThousandTen",29000,2162,NA,29000,0,22420,1007,1,16,49,26
0,"1002 MACDONALD AVE","FLINT","MI",48507,42.9826154318672,-83.6576186840303,"TwoThousandTen",29000,2162,NA,29000,0,22420,3006,3,35,49,26
0,"1209 KENSINGTON AVE","FLINT","MI",48503,43.0154863330873,-83.6661453170802,"TwoThousandTen",29000,2162,NA,29000,0,22420,3027,3,30,49,26
0,"1705 DELAWARE AVE","FLINT","MI",48506,43.0398823974508,-83.6679629334292,"TwoThousandTen",29000,2162,NA,29000,0,22420,3007,3,22,49,26
0,"3344 CHEYENNE AVE","FLINT","MI",48529,42.9800775452621,-83.6555033239106,"TwoThousandTen",12060,2162,NA,12060,0,22420,1002,1,113.02,49,26
0,"2602 DELAWARE AVE","FLINT","MI",48506,43.0395993514814,-83.6577228051193,"TwoThousandTen",29000,2162,NA,29000,0,22420,3001,3,23,49,26
0,"3410 BRENT AVE","FLINT","MI",48506,43.0297181024565,-83.6439589988372,"TwoThousandTen",29000,2162,NA,29000,0,22420,4013,4,27,49,26
0,"1605 WALDMAN AVE","FLINT","MI",48507,42.9889630419219,-83.7017978965142,"TwoThousandTen",29000,2162,NA,29000,0,22420,1005,1,135,49,26
0,"3299 CHEYENNE AVE","FLINT","MI",48507,42.9931823168207,-83.6559461363794,"TwoThousandTen",29000,2162,NA,29000,0,22420,2001,2,33,49,26
0,"632 PARTRIDGE ST","FLINT","MI",48503,43.0013534487403,-83.6850683237767,"TwoThousandTen",29000,2162,NA,29000,0,22420,1045,1,38,49,26
0,"2813 RASKOB ST","FLINT","MI",48504,43.0255267100457,-83.7289955339297,"TwoThousandTen",29000,2162,NA,29000,0,22420,2010,2,13,49,26
0,"2205 NEBRASKA AVE","FLINT","MI",48506,43.0273801159907,-83.6614300215072,"TwoThousandTen",29000,2162,NA,29000,0,22420,5031,5,26,49,26
0,"609 BURROUGHS AVE","FLINT","MI",48507,42.9875101809494,-83.6630690778029,"TwoThousandTen",29000,2162,NA,29000,0,22420,2007,2,35,49,26
0,"1717 TIMBERLANE DR","FLINT","MI",48507,42.9887545352711,-83.7065194233782,"TwoThousandTen",29000,2162,NA,29000,0,22420,2040,2,135,49,26
0,"1137 S DYE RD","FLINT","MI",48532,43.0125961561358,-83.7828125253241,"TwoThousandTen",NA,870,NA,29020,0,22420,1001,1,108.13,49,26
0,"1812 COLCHESTER RD","FLINT","MI",48503,42.9960216306918,-83.724387182825,"TwoThousandTen",29000,2162,NA,29000,0,22420,6009,6,36,49,26
0,"1628 SEMINOLE ST","FLINT","MI",48503,43.0291676943984,-83.7109821923929,"TwoThousandTen",29000,2162,NA,29000,0,22420,1001,1,14,49,26
0,"1102 W DAYTON ST","FLINT","MI",48504,43.0386794134735,-83.71828722514,"TwoThousandTen",29000,2162,NA,29000,0,22420,3030,3,9,49,26
0,"3508 CLOVERTREE LN","FLINT","MI",48532,43.0058754727705,-83.7469079729086,"TwoThousandTen",NA,870,NA,29020,0,22420,2012,2,109.11,49,26
0,"6932 YORKSHIRE DR","FLINT","MI",48505,43.0744110317091,-83.6608731482669,"TwoThousandTen",29000,2162,NA,29000,0,22420,2001,2,18,49,26
0,"648 HURON ST","FLINT","MI",48507,42.9845535213469,-83.6842590651521,"TwoThousandTen",29000,2162,NA,29000,0,22420,4007,4,40,49,26
0,"1913 SEYMOUR AVE","FLINT","MI",48503,43.0068339424084,-83.6617924073743,"TwoThousandTen",29000,2162,NA,29000,0,22420,3012,3,32,49,26
0,"4029 MILBOURNE AVE","FLINT","MI",48504,43.0508800201576,-83.7174548706401,"TwoThousandTen",29000,2162,NA,29000,0,22420,2008,2,7,49,26
0,"316 W BUNDY AVE","FLINT","MI",48505,43.0747007993799,-83.7085258269549,"TwoThousandTen",29000,2162,NA,29000,0,22420,1000,1,2,49,26
0,"641 W HOME AVE","FLINT","MI",48505,43.0670188512981,-83.7133565108697,"TwoThousandTen",29000,2162,NA,29000,0,22420,1002,1,4,49,26
0,"6811 DUPONT ST","FLINT","MI",48505,43.0730755035948,-83.7140647371607,"TwoThousandTen",29000,2162,NA,29000,0,22420,3006,3,1,49,26
0,"426 E GRACELAWN AVE","FLINT","MI",48505,43.065703985376,-83.6985441747748,"TwoThousandTen",29000,2162,NA,29000,0,22420,3008,3,4,49,26
0,"3117 THOM ST","FLINT","MI",48506,43.0436038917808,-83.6501033744945,"TwoThousandTen",29000,2162,NA,29000,0,22420,2009,2,24,49,26
0,"1018 HAMMOND AVE","FLINT","MI",48503,43.0038340428263,-83.7226373305933,"TwoThousandTen",29000,2162,NA,29000,0,22420,2033,2,37,49,26
0,"2324 LAPEER RD APT 308","FLINT","MI",48503,43.0092923842077,-83.6647752201645,"TwoThousandTen",29000,2162,NA,29000,0,22420,2004,2,32,49,26
0,"3413 BRENT AVE","FLINT","MI",48506,43.0298969468181,-83.6439527844855,"TwoThousandTen",29000,2162,NA,29000,0,22420,4015,4,27,49,26
0,"3618 PINGREE AVE","FLINT","MI",48503,43.0061009098485,-83.6408897808251,"TwoThousandTen",29000,2162,NA,29000,0,22420,1013,1,31,49,26
0,"1918 LLOYD ST","FLINT","MI",48504,43.0332461688324,-83.7215527344075,"TwoThousandTen",29000,2162,NA,29000,0,22420,4012,4,9,49,26
0,"625 W HOLBROOK AVE","FLINT","MI",48505,43.0721967286249,-83.7121134447412,"TwoThousandTen",29000,2162,NA,29000,0,22420,1013,1,2,49,26
0,"1002 COPEMAN BLVD","FLINT","MI",48504,43.0310503439985,-83.7184086844604,"TwoThousandTen",29000,2162,NA,29000,0,22420,4001,4,12,49,26
0,"3726 CRAIG DR","FLINT","MI",48506,43.044592365746,-83.639076526002,"TwoThousandTen",29000,2162,NA,29000,0,22420,3008,3,24,49,26
0,"3711 BRANCH RD","FLINT","MI",48506,43.0479461135644,-83.6506330657875,"TwoThousandTen",29000,2162,NA,29000,0,22420,1009,1,24,49,26
0,"1114 W PIERSON RD","FLINT","MI",48505,43.0609378725857,-83.718665813406,"TwoThousandTen",29000,2162,NA,29000,0,22420,2013,2,3,49,26
0,"5005 MIAMI LN","FLINT","MI",48504,43.0594144047933,-83.7244119210827,"TwoThousandTen",29000,2162,NA,29000,0,22420,2003,2,5,49,26
0,"3111 DALE AVE","FLINT","MI",48506,43.034521372736,-83.6489344547219,"TwoThousandTen",29000,2162,NA,29000,0,22420,3012,3,27,49,26
0,"4009 TUXEDO AVE","FLINT","MI",48507,42.9867677687305,-83.6957461527238,"TwoThousandTen",29000,2162,NA,29000,0,22420,3005,3,135,49,26
0,"413 GARLAND ST APT 2","FLINT","MI",48503,43.0189240666312,-83.6948792403404,"TwoThousandTen",29000,2162,NA,29000,0,22420,2026,2,28,49,26
0,"217 W PULASKI AVE","FLINT","MI",48505,43.0601106504231,-83.7063575217812,"TwoThousandTen",29000,2162,NA,29000,0,22420,2001,2,6,49,26
0,"418 W RANKIN ST","FLINT","MI",48505,43.0401514798869,-83.7095662705502,"TwoThousandTen",29000,2162,NA,29000,0,22420,2010,2,10,49,26
0,"2615 DUPONT ST","FLINT","MI",48504,43.040712838797,-83.7133638963567,"TwoThousandTen",29000,2162,NA,29000,0,22420,3027,3,9,49,26
0,"1326 ELDORADO DR","FLINT","MI",48504,43.0298801086935,-83.739759476263,"TwoThousandTen",29000,2162,NA,29000,0,22420,1004,1,13,49,26
0,"1520 PETTIBONE AVE","FLINT","MI",48507,42.9898652940559,-83.7005354292051,"TwoThousandTen",29000,2162,NA,29000,0,22420,1003,1,135,49,26
0,"618 LETA AVE","FLINT","MI",48507,42.9865422122175,-83.6627186628491,"TwoThousandTen",29000,2162,NA,29000,0,22420,2011,2,35,49,26
0,"3418 CHEROKEE AVE","FLINT","MI",48507,42.9921735369354,-83.6581282392929,"TwoThousandTen",29000,2162,NA,29000,0,22420,2003,2,33,49,26
0,"1924 GILMARTIN ST","FLINT","MI",48503,43.0069420858322,-83.6472933603307,"TwoThousandTen",29000,2162,NA,29000,0,22420,2049,2,31,49,26
0,"4401 CHEYENNE AVE","FLINT","MI",48507,42.9847947246308,-83.6554834144471,"TwoThousandTen",29000,2162,NA,29000,0,22420,3000,3,35,49,26
0,"845 SIMCOE AVE","FLINT","MI",48507,42.9942140418362,-83.6891742725586,"TwoThousandTen",29000,2162,NA,29000,0,22420,1024,1,40,49,26
0,"4617 THETFORD RD","FLINT","MI",48505,43.062702,-83.692479,"TwoThousandTen",29000,2162,NA,29000,0,22420,2030,2,17,49,26
0,"983 MANN AVE APT 14","FLINT","MI",48503,43.0041787367838,-83.7302034873044,"TwoThousandTen",29000,2162,NA,29000,0,22420,2000,2,36,49,26
0,"2307 CALUMET ST","FLINT","MI",48503,43.0163209572606,-83.6601051859186,"TwoThousandTen",29000,2162,NA,29000,0,22420,3011,3,30,49,26
0,"3217 RISEDORPH AVE","FLINT","MI",48506,43.0382775012012,-83.6473128905857,"TwoThousandTen",29000,2162,NA,29000,0,22420,1017,1,27,49,26
0,"4907 THETA PASS","FLINT","MI",48506,43.059502804089,-83.6589851467207,"TwoThousandTen",29000,2162,NA,29000,0,22420,2002,2,19,49,26
0,"1718 RAMSAY BLVD","FLINT","MI",48503,43.0009065885573,-83.710855856149,"TwoThousandTen",29000,2162,NA,29000,0,22420,6002,6,36,49,26
0,"4414 SHAWNEE AVE","FLINT","MI",48507,42.9844302246368,-83.6566150567773,"TwoThousandTen",29000,2162,NA,29000,0,22420,3008,3,35,49,26
0,"1839 BARKS ST","FLINT","MI",48503,43.008679334986,-83.6607082407916,"TwoThousandTen",29000,2162,NA,29000,0,22420,3010,3,32,49,26
0,"3842 WOODROW AVE","FLINT","MI",48506,43.0377569684982,-83.6374331323356,"TwoThousandTen",29000,2162,NA,29000,0,22420,2012,2,27,49,26
0,"1830 WINDSOR LN","FLINT","MI",48507,42.9864771361994,-83.7087983154777,"TwoThousandTen",29000,2162,NA,29000,0,22420,5008,5,135,49,26
0,"3602 COMANCHE AVE","FLINT","MI",48507,42.9908151678303,-83.6590762066903,"TwoThousandTen",29000,2162,NA,29000,0,22420,2007,2,33,49,26
0,"3926 RED ARROW RD","FLINT","MI",48507,42.9878433542892,-83.6717933608872,"TwoThousandTen",29000,2162,NA,29000,0,22420,2003,2,35,49,26
0,"2578 THOMAS ST","FLINT","MI",48504,43.0184572904466,-83.7296423158903,"TwoThousandTen",29000,2162,NA,29000,0,22420,1002,1,16,49,26
0,"1123 S CORNELL AVE","FLINT","MI",48505,43.0831841270218,-83.6987813527811,"TwoThousandTen",6820,2162,NA,55980,0,22420,2024,2,103.04,49,26
0,"517 E HOLBROOK AVE","FLINT","MI",48505,43.0724818673644,-83.6975262238675,"TwoThousandTen",29000,2162,NA,29000,0,22420,2008,2,2,49,26
0,"3618 KLEINPELL ST","FLINT","MI",48507,42.9903166345376,-83.6467250737971,"TwoThousandTen",29000,2162,NA,29000,0,22420,2020,2,34,49,26
0,"2725 MANSFIELD AVE","FLINT","MI",48503,43.0077684261749,-83.7253668871562,"TwoThousandTen",29000,2162,NA,29000,0,22420,5015,5,16,49,26
0,"801 ADDISON ST","FLINT","MI",48505,43.0492620481619,-83.690474424796,"TwoThousandTen",29000,2162,NA,29000,0,22420,2009,2,20,49,26
0,"1011 E 5TH AVE","FLINT","MI",48503,43.0235569982318,-83.69215578219,"TwoThousandTen",29000,2162,NA,29000,0,22420,1026,1,136,49,26
0,"2727 RASKOB ST","FLINT","MI",48504,43.0247579747708,-83.726532046861,"TwoThousandTen",29000,2162,NA,29000,0,22420,2014,2,13,49,26
0,"2058 BRANCH RD","FLINT","MI",48506,43.0345533502938,-83.6490037285359,"TwoThousandTen",29000,2162,NA,29000,0,22420,3012,3,27,49,26
0,"1502 BEGOLE ST","FLINT","MI",48503,43.0264855099859,-83.7087412609004,"TwoThousandTen",29000,2162,NA,29000,0,22420,1005,1,14,49,26
0,"206 W MARENGO AVE","FLINT","MI",48505,43.0595307426771,-83.7062590957354,"TwoThousandTen",29000,2162,NA,29000,0,22420,2001,2,6,49,26
0,"616 W 7TH ST","FLINT","MI",48503,43.0064911754842,-83.6911451105793,"TwoThousandTen",29000,2162,NA,29000,0,22420,3033,3,28,49,26
0,"756 VERMILYA AVE","FLINT","MI",48507,42.9917173630799,-83.6883716681812,"TwoThousandTen",29000,2162,NA,29000,0,22420,2012,2,40,49,26
0,"6705 COLONIAL DR","FLINT","MI",48505,43.0727111410082,-83.720631990731,"TwoThousandTen",29000,2162,NA,29000,0,22420,2006,2,1,49,26
0,"625 W RIDGEWAY AVE","FLINT","MI",48505,43.0617622782314,-83.7128017147975,"TwoThousandTen",29000,2162,NA,29000,0,22420,1004,1,4,49,26
0,"5313 GRANVILLE AVE","FLINT","MI",48505,43.061950966109,-83.7125110144853,"TwoThousandTen",29000,2162,NA,29000,0,22420,1011,1,4,49,26
0,"1291 W KURTZ AVE","FLINT","MI",48505,43.0893947186326,-83.7045238455537,"TwoThousandTen",6820,2162,NA,55980,0,22420,1006,1,103.04,49,26
0,"129 RIVER BANK DR","FLINT","MI",48503,43.0157697210026,-83.6964376167789,"TwoThousandTen",29000,2162,NA,29000,0,22420,2104,2,28,49,26
0,"3201 HELBER ST","FLINT","MI",48504,43.0352692826477,-83.7319368174765,"TwoThousandTen",29000,2162,NA,29000,0,22420,2013,2,12,49,26
0,"5125 N CENTER RD LOT 65","FLINT","MI",48506,43.0794356850219,-83.6365929072019,"TwoThousandTen",NA,870,NA,31800,0,22420,1024,1,120.07,49,26
0,"1014 E HOLBROOK AVE","FLINT","MI",48505,43.0723713844114,-83.6872423742634,"TwoThousandTen",29000,2162,NA,29000,0,22420,1014,1,17,49,26
0,"2924 WYOMING AVE","FLINT","MI",48506,43.0455445266526,-83.6537560277918,"TwoThousandTen",29000,2162,NA,29000,0,22420,1013,1,24,49,26
0,"5202 WESTERN RD","FLINT","MI",48506,43.0620009439487,-83.6568020625681,"TwoThousandTen",29000,2162,NA,29000,0,22420,1004,1,19,49,26
0,"2216 ARLINGTON AVE","FLINT","MI",48506,43.0359796850458,-83.6631552577411,"TwoThousandTen",29000,2162,NA,29000,0,22420,3011,3,23,49,26
0,"2507 ALPHA WAY","FLINT","MI",48506,43.0609810110442,-83.6573432122536,"TwoThousandTen",29000,2162,NA,29000,0,22420,2000,2,19,49,26
0,"3009 DAKOTA AVE","FLINT","MI",48506,43.0413586404691,-83.6522123951856,"TwoThousandTen",29000,2162,NA,29000,0,22420,1010,1,27,49,26
0,"830 CLINTON ST","FLINT","MI",48507,42.9851944296055,-83.6887770671675,"TwoThousandTen",29000,2162,NA,29000,0,22420,4012,4,40,49,26
0,"82 GREEN VALLEY RD","FLINT","MI",48506,43.0974644453013,-83.6043473344534,"TwoThousandTen",NA,870,NA,31800,0,22420,1021,1,120.03,49,26
0,"1054 E ALMA AVE","FLINT","MI",48505,43.0730929548852,-83.6860097064455,"TwoThousandTen",29000,2162,NA,29000,0,22420,1008,1,17,49,26
0,"2715 COVENTRY CT","FLINT","MI",48503,43.0086819262967,-83.7243020087874,"TwoThousandTen",29000,2162,NA,29000,0,22420,5014,5,16,49,26
0,"110 BRUCE ST","FLINT","MI",48503,42.9995763093907,-83.6775596411051,"TwoThousandTen",29000,2162,NA,29000,0,22420,2010,2,38,49,26
0,"3113 CHEYENNE AVE","FLINT","MI",48507,42.9945090235766,-83.65598669277,"TwoThousandTen",29000,2162,NA,29000,0,22420,2001,2,33,49,26
0,"1713 LYNBROOK DR","FLINT","MI",48507,42.9827745476131,-83.7038906046707,"TwoThousandTen",29000,2162,NA,29000,0,22420,5017,5,135,49,26
0,"1409 BELLCREEK DR","FLINT","MI",48505,43.070581324385,-83.7220563594677,"TwoThousandTen",29000,2162,NA,29000,0,22420,2007,2,1,49,26
0,"441 CATALPA CT","FLINT","MI",48506,43.0937925277935,-83.6145154043822,"TwoThousandTen",NA,870,NA,31800,0,22420,1014,1,120.03,49,26
0,"3211 WHITTIER AVE","FLINT","MI",48506,43.0366996605417,-83.6474172808929,"TwoThousandTen",29000,2162,NA,29000,0,22420,1021,1,27,49,26
0,"1814 GLENDALE AVE","FLINT","MI",48503,43.0231803542238,-83.6654777262972,"TwoThousandTen",29000,2162,NA,29000,0,22420,1013,1,30,49,26
0,"3716 SUNRIDGE DR","FLINT","MI",48506,43.0482403764618,-83.6492748069683,"TwoThousandTen",29000,2162,NA,29000,0,22420,2004,2,24,49,26
0,"1932 HOWARD AVE","FLINT","MI",48503,43.0082829742472,-83.6691620800271,"TwoThousandTen",29000,2162,NA,29000,0,22420,1001,1,32,49,26
0,"633 PARTRIDGE ST","FLINT","MI",48503,43.0013618829458,-83.6843868711881,"TwoThousandTen",29000,2162,NA,29000,0,22420,1046,1,38,49,26
0,"3510 CRAIG DR","FLINT","MI",48506,43.0446133663747,-83.6426096920096,"TwoThousandTen",29000,2162,NA,29000,0,22420,3007,3,24,49,26
0,"1821 ROCKCREEK LN","FLINT","MI",48507,42.9848886538226,-83.7077505016521,"TwoThousandTen",29000,2162,NA,29000,0,22420,5009,5,135,49,26
0,"3125 DEARBORN AVE","FLINT","MI",48507,42.9962428310705,-83.660641071817,"TwoThousandTen",29000,2162,NA,29000,0,22420,1019,1,33,49,26
0,"6613 N WEBSTER RD","FLINT","MI",48505,43.072906533955,-83.6658778948913,"TwoThousandTen",29000,2162,NA,29000,0,22420,1009,1,18,49,26
0,"2901 HAMPSTEAD DR","FLINT","MI",48506,43.0676833398578,-83.6529363531281,"TwoThousandTen",29000,2162,NA,29000,0,22420,1002,1,19,49,26
0,"2802 RIEGLE AVE","FLINT","MI",48506,43.0408465570092,-83.6376880221893,"TwoThousandTen",29000,2162,NA,29000,0,22420,2004,2,27,49,26
0,"3344 MENOMINEE ST","FLINT","MI",48529,42.9800719102037,-83.6544246949497,"TwoThousandTen",12060,2162,NA,12060,0,22420,1001,1,113.02,49,26
0,"420 BUCKINGHAM AVE","FLINT","MI",48507,42.9880748485866,-83.6677778016436,"TwoThousandTen",29000,2162,NA,29000,0,22420,2008,2,35,49,26
0,"G3342 FENTON RD","FLINT","MI",48507,42.970942,-83.703232,"TwoThousandTen",NA,870,NA,29020,0,22420,4001,4,110.1,49,26
0,"3910 BRANCH RD","FLINT","MI",48506,43.0494336695625,-83.6504574210776,"TwoThousandTen",29000,2162,NA,29000,0,22420,2002,2,24,49,26
0,"5501 FLEMING RD","FLINT","MI",48504,43.0631430616969,-83.7237390747932,"TwoThousandTen",29000,2162,NA,29000,0,22420,1011,1,3,49,26
0,"2529 SWAYZE ST","FLINT","MI",48503,43.0029459149263,-83.7191837683739,"TwoThousandTen",29000,2162,NA,29000,0,22420,4004,4,37,49,26
0,"2222 LEVERN ST","FLINT","MI",48506,43.0364532680269,-83.6587006713287,"TwoThousandTen",29000,2162,NA,29000,0,22420,3017,3,23,49,26
0,"1733 LAUREL OAK CT","FLINT","MI",48507,42.9826680316784,-83.706275005607,"TwoThousandTen",29000,2162,NA,29000,0,22420,5012,5,135,49,26
0,"2050 AITKEN AVE","FLINT","MI",48503,43.0046332698083,-83.6680203753356,"TwoThousandTen",29000,2162,NA,29000,0,22420,2011,2,32,49,26
0,"2801 S DORT HWY LOT L12","FLINT","MI",48507,43.0404756533322,-83.6555418799815,"TwoThousandTen",29000,2162,NA,29000,0,22420,2023,2,23,49,26
0,"2725 BRANDON ST","FLINT","MI",48503,42.9989747102175,-83.721590490518,"TwoThousandTen",29000,2162,NA,29000,0,22420,5001,5,36,49,26
0,"1001 PERRY ST","FLINT","MI",48504,43.0186700466177,-83.715189794023,"TwoThousandTen",29000,2162,NA,29000,0,22420,2001,2,16,49,26
0,"1423 BLACKBERRY LN","FLINT","MI",48507,42.9849581178037,-83.6986829204899,"TwoThousandTen",29000,2162,NA,29000,0,22420,3011,3,135,49,26
0,"629 E 3RD ST","FLINT","MI",48503,43.017216565199,-83.6823893619267,"TwoThousandTen",29000,2162,NA,29000,0,22420,1023,1,29,49,26
0,"3306 CHAMBERS ST","FLINT","MI",48507,42.9932121823604,-83.6479973592621,"TwoThousandTen",29000,2162,NA,29000,0,22420,2004,2,34,49,26
0,"1035 LEISURE DR","FLINT","MI",48507,42.9513369556695,-83.6930088228805,"TwoThousandTen",NA,870,NA,56160,0,22420,2008,2,129.05,49,26
0,"2022 SLOAN ST","FLINT","MI",48504,43.0209972772433,-83.716169915941,"TwoThousandTen",29000,2162,NA,29000,0,22420,4008,4,13,49,26
0,"1013 BARNEY AVE","FLINT","MI",48503,43.0034104019709,-83.7311731032536,"TwoThousandTen",29000,2162,NA,29000,0,22420,2009,2,36,49,26
0,"3406 CHAMBERS ST","FLINT","MI",48507,42.9923910219508,-83.6479649360539,"TwoThousandTen",29000,2162,NA,29000,0,22420,2004,2,34,49,26
0,"3101 CHEYENNE AVE","FLINT","MI",48507,42.9945946175614,-83.6559893093114,"TwoThousandTen",29000,2162,NA,29000,0,22420,2001,2,33,49,26
0,"5366 RIDGEBEND DR","FLINT","MI",48507,42.9543734507978,-83.7180207729661,"TwoThousandTen",NA,870,NA,56160,0,22420,2004,2,129.05,49,26
0,"1407 WOODLAWN PARK DR","FLINT","MI",48503,43.0142121692983,-83.6706570161645,"TwoThousandTen",29000,2162,NA,29000,0,22420,3023,3,30,49,26
0,"1829 VALLEY LN","FLINT","MI",48503,43.0089787915007,-83.6399241529833,"TwoThousandTen",29000,2162,NA,29000,0,22420,1004,1,31,49,26
0,"1406 SUTTON AVE","FLINT","MI",48504,43.0300907132065,-83.7331867053456,"TwoThousandTen",29000,2162,NA,29000,0,22420,1001,1,13,49,26
0,"1528 PETTIBONE AVE","FLINT","MI",48507,42.9898642505776,-83.7006586934191,"TwoThousandTen",29000,2162,NA,29000,0,22420,1003,1,135,49,26
0,"3045 W LYNDON AVE","FLINT","MI",48504,43.0630193557947,-83.7352102786995,"TwoThousandTen",NA,870,NA,55980,0,22420,2063,2,105.01,49,26
0,"1411 DOWNEY ST","FLINT","MI",48503,43.0023405480068,-83.7157664621434,"TwoThousandTen",29000,2162,NA,29000,0,22420,1012,1,37,49,26
0,"2935 CLEMENT ST","FLINT","MI",48504,43.0310952795691,-83.7290852009937,"TwoThousandTen",29000,2162,NA,29000,0,22420,2030,2,12,49,26
0,"1921 GILMARTIN ST","FLINT","MI",48503,43.0073299436974,-83.6471461512081,"TwoThousandTen",29000,2162,NA,29000,0,22420,2048,2,31,49,26
0,"3165 FINNEY CT","FLINT","MI",48504,43.0505194089267,-83.7404043486987,"TwoThousandTen",NA,870,NA,55980,0,22420,1000,1,105.01,49,26
0,"3122 WYOMING AVE","FLINT","MI",48506,43.0456128610094,-83.6499674791516,"TwoThousandTen",29000,2162,NA,29000,0,22420,2007,2,24,49,26
0,"3144 DELAWARE AVE","FLINT","MI",48506,43.0396309256358,-83.6492281125277,"TwoThousandTen",29000,2162,NA,29000,0,22420,1015,1,27,49,26
0,"1804 SUNCREST DR","FLINT","MI",48504,43.0293752813572,-83.7426791784817,"TwoThousandTen",NA,870,NA,29020,0,22420,2025,2,108.12,49,26
0,"924 E 6TH ST","FLINT","MI",48503,43.0152511408474,-83.6763817499047,"TwoThousandTen",29000,2162,NA,29000,0,22420,2000,2,29,49,26
0,"1112 LAFAYETTE ST","FLINT","MI",48503,43.0160501749197,-83.6639831878069,"TwoThousandTen",29000,2162,NA,29000,0,22420,3028,3,30,49,26
0,"1919 CORUNNA RD","FLINT","MI",48503,43.0065955308302,-83.7110485754527,"TwoThousandTen",29000,2162,NA,29000,0,22420,2014,2,37,49,26
0,"323 ALLENDALE PL","FLINT","MI",48503,43.0127735058876,-83.7260492743255,"TwoThousandTen",29000,2162,NA,29000,0,22420,5002,5,16,49,26
0,"716 AVON ST","FLINT","MI",48503,43.0180098034124,-83.6790689011835,"TwoThousandTen",29000,2162,NA,29000,0,22420,1008,1,29,49,26
0,"225 E 5TH ST STE 200","FLINT","MI",48502,43.0104101700999,-83.6887546229801,"TwoThousandTen",29000,2162,NA,29000,0,22420,1004,1,28,49,26
0,"5442 CORUNNA RD","FLINT","MI",48532,43.0019265053275,-83.7894146303534,"TwoThousandTen",NA,870,NA,29020,0,22420,2002,2,108.13,49,26
0,"2502 HILLS ST","FLINT","MI",48503,43.0168616345271,-83.6574613654833,"TwoThousandTen",29000,2162,NA,29000,0,22420,3011,3,30,49,26
0,"401 E PULASKI AVE","FLINT","MI",48505,43.0602933287207,-83.698932176967,"TwoThousandTen",29000,2162,NA,29000,0,22420,4000,4,6,49,26
0,"613 STEVENSON ST","FLINT","MI",48504,43.0164082467021,-83.7059681340504,"TwoThousandTen",29000,2162,NA,29000,0,22420,3004,3,15,49,26
0,"613 STEVENSON ST","FLINT","MI",48504,43.0164082467021,-83.7059681340504,"TwoThousandTen",29000,2162,NA,29000,0,22420,3004,3,15,49,26
0,"4402 RED ARROW RD","FLINT","MI",48507,42.9841446103667,-83.6665371204506,"TwoThousandTen",29000,2162,NA,29000,0,22420,2003,2,35,49,26
0,"601 LEITH ST","FLINT","MI",48505,43.0434708347525,-83.6955589151551,"TwoThousandTen",29000,2162,NA,29000,0,22420,1011,1,11,49,26
0,"5246 RIDGEBEND DR","FLINT","MI",48507,42.9587240983912,-83.718295,"TwoThousandTen",NA,870,NA,56160,0,22420,2004,2,129.05,49,26
0,"2018 KENTUCKY AVE","FLINT","MI",48506,43.0278867790778,-83.6635230875052,"TwoThousandTen",29000,2162,NA,29000,0,22420,4012,4,26,49,26
0,"139 E BELVIDERE AVE","FLINT","MI",48503,42.9948476364041,-83.676604843871,"TwoThousandTen",29000,2162,NA,29000,0,22420,2024,2,38,49,26
0,"209 COMMONWEALTH AVE","FLINT","MI",48503,43.0235546095957,-83.6575684140904,"TwoThousandTen",29000,2162,NA,29000,0,22420,2008,2,30,49,26
0,"4401 ASHLAWN DR","FLINT","MI",48507,42.9624949186174,-83.7043049873028,"TwoThousandTen",NA,870,NA,29020,0,22420,5014,5,110.1,49,26
0,"2817 COMANCHE AVE","FLINT","MI",48507,42.9960733469662,-83.6604078894404,"TwoThousandTen",29000,2162,NA,29000,0,22420,1019,1,33,49,26
0,"4518 PENGELLY RD","FLINT","MI",48507,42.9831011671838,-83.6675048637747,"TwoThousandTen",29000,2162,NA,29000,0,22420,1003,1,35,49,26
0,"3108 MILLER RD","FLINT","MI",48503,42.9952051916989,-83.7266879614528,"TwoThousandTen",29000,2162,NA,29000,0,22420,5010,5,36,49,26
0,"3925 HOGARTH AVE","FLINT","MI",48532,42.9956184714464,-83.7370031590634,"TwoThousandTen",29000,2162,NA,29000,0,22420,3020,3,36,49,26
0,"5495 E COLDWATER RD","FLINT","MI",48506,43.0918964464213,-83.5996507127431,"TwoThousandTen",NA,870,NA,31800,0,22420,1028,1,120.03,49,26
0,"3113 WHITTIER AVE","FLINT","MI",48506,43.0366900242627,-83.6497284294682,"TwoThousandTen",29000,2162,NA,29000,0,22420,1022,1,27,49,26
0,"1179 E LORADO AVE","FLINT","MI",48505,43.0711436607768,-83.6809529959186,"TwoThousandTen",29000,2162,NA,29000,0,22420,2015,2,17,49,26
0,"3525 E COURT ST","FLINT","MI",48506,43.0187259387335,-83.6392759531325,"TwoThousandTen",29000,2162,NA,29000,0,22420,2012,2,31,49,26
0,"1717 OHIO AVE","FLINT","MI",48506,43.0302203093703,-83.6673973037135,"TwoThousandTen",29000,2162,NA,29000,0,22420,3005,3,26,49,26
0,"3305 BEGOLE ST","FLINT","MI",48504,43.0348838413972,-83.7333121499286,"TwoThousandTen",29000,2162,NA,29000,0,22420,2012,2,12,49,26
0,"1819 AVENUE A","FLINT","MI",48505,43.0327927728709,-83.6974939497213,"TwoThousandTen",29000,2162,NA,29000,0,22420,4019,4,11,49,26
0,"3499 S LINDEN RD STE 5","FLINT","MI",48507,42.9756159727397,-83.7718559630607,"TwoThousandTen",NA,870,NA,29020,0,22420,1090,1,109.12,49,26
0,"902 N CHEVROLET AVE","FLINT","MI",48504,43.0177854081607,-83.7183723843043,"TwoThousandTen",29000,2162,NA,29000,0,22420,2009,2,16,49,26
0,"917 E FORK DR","FLINT","MI",48503,43.0180698469073,-83.6707217458157,"TwoThousandTen",29000,2162,NA,29000,0,22420,3018,3,30,49,26
0,"1945 LINCOLN DR","FLINT","MI",48503,42.9986584830428,-83.7111938216124,"TwoThousandTen",29000,2162,NA,29000,0,22420,6005,6,36,49,26
0,"723 LINCOLN AVE","FLINT","MI",48507,42.9908458540253,-83.6863836818234,"TwoThousandTen",29000,2162,NA,29000,0,22420,2020,2,40,49,26
0,"314 W 4TH AVE","FLINT","MI",48503,43.0210312403432,-83.698163246976,"TwoThousandTen",29000,2162,NA,29000,0,22420,2012,2,28,49,26
0,"3277 MENOMINEE ST","FLINT","MI",48529,42.9809472857763,-83.6542806970101,"TwoThousandTen",12060,2162,NA,12060,0,22420,1000,1,113.02,49,26
0,"1939 WOODSLEA DR APT 2","FLINT","MI",48507,42.9997444999971,-83.6577042114529,"TwoThousandTen",29000,2162,NA,29000,0,22420,1000,1,33,49,26
0,"G3418 BRANCH RD","FLINT","MI",48506,43.051354,-83.637617,"TwoThousandTen",NA,870,NA,31800,0,22420,3000,3,120.06,49,26
0,"1809 CRESTBROOK LN","FLINT","MI",48507,42.9853551513505,-83.7016748631317,"TwoThousandTen",29000,2162,NA,29000,0,22420,4005,4,135,49,26
